const chicagoData = [
    
    {
      "x": -87.684349,
      "y": 41.997871,
      "objectid": 43,
      "store_name": "Devon Store",
      "address": "2144 W Devon Ave",
      "address_line__2": "Ste 1W",
      "city": "Chicago",
      "state": "IL",
      "zip5": 60659,
      "zip4": "2165",
      "county": "COOK",
      "longitude": -87.684349,
      "latitude": 41.997871,
      "date_created": "2020-12-15 02:22:00-05"
    },
    {
      "x": -87.708488,
      "y": 41.967812,
      "objectid": 195,
      "store_name": "Mounsef International",
      "address": "4738 N Kedzie Ave",
      "address_line__2": null,
      "city": "Chicago",
      "state": "IL",
      "zip5": 60625,
      "zip4": "4421",
      "county": "COOK",
      "longitude": -87.708488,
      "latitude": 41.967812,
      "date_created": "2020-12-15 02:22:00-05"
    },
    {
      "x": -87.648994,
      "y": 41.765144,
      "objectid": 1732,
      "store_name": "Good Buddy 1",
      "address": "954 W 71st St",
      "address_line__2": null,
      "city": "Chicago",
      "state": "IL",
      "zip5": 60621,
      "zip4": "1748",
      "county": "COOK",
      "longitude": -87.648994,
      "latitude": 41.765144,
      "date_created": "2020-12-15 02:22:00-05"
    },
    {
      "x": -87.654762,
      "y": 41.991913,
      "objectid": 615,
      "store_name": "Malibu Market",
      "address": "6033 N Sheridan Rd",
      "address_line__2": null,
      "city": "Chicago",
      "state": "IL",
      "zip5": 60660,
      "zip4": "3003",
      "county": "COOK",
      "longitude": -87.654762,
      "latitude": 41.991913,
      "date_created": "2020-12-15 02:22:00-05"
    },
    {
      "x": -87.598648,
      "y": 41.751369,
      "objectid": 771,
      "store_name": "5 Guys Market Inc",
      "address": "1040 E 79th St",
      "address_line__2": null,
      "city": "Chicago",
      "state": "IL",
      "zip5": 60619,
      "zip4": "4441",
      "county": "COOK",
      "longitude": -87.598648,
      "latitude": 41.751369,
      "date_created": "2020-12-15 02:22:00-05"
    },
    {
      "x": -87.615776,
      "y": 41.783802,
      "objectid": 1361,
      "store_name": "Naj Corp",
      "address": "6100 S Dr. Martin Luther King Jr Dr",
      "address_line__2": null,
      "city": "Chicago",
      "state": "IL",
      "zip5": 60637,
      "zip4": "2314",
      "county": "COOK",
      "longitude": -87.615776,
      "latitude": 41.783802,
      "date_created": "2020-12-15 02:22:00-05"
    },
    {
      "x": -87.745483,
      "y": 41.880535,
      "objectid": 1589,
      "store_name": "Mobil",
      "address": "4804 W Madison St",
      "address_line__2": null,
      "city": "Chicago",
      "state": "IL",
      "zip5": 60644,
      "zip4": "3638",
      "county": "COOK",
      "longitude": -87.745483,
      "latitude": 41.880535,
      "date_created": "2020-12-15 02:22:00-05"
    },
    {
      "x": -87.726173,
      "y": 41.808067,
      "objectid": 1764,
      "store_name": "Judes Mini Mart, Llc",
      "address": "4100 W 47th St",
      "address_line__2": null,
      "city": "Chicago",
      "state": "IL",
      "zip5": 60632,
      "zip4": "4102",
      "county": "COOK",
      "longitude": -87.726173,
      "latitude": 41.808067,
      "date_created": "2020-12-15 02:22:00-05"
    },
    {
      "x": -87.652916,
      "y": 41.958271,
      "objectid": 1915,
      "store_name": "7-Eleven 36793H",
      "address": "4150 N Broadway St",
      "address_line__2": null,
      "city": "Chicago",
      "state": "IL",
      "zip5": 60613,
      "zip4": "2121",
      "county": "COOK",
      "longitude": -87.652916,
      "latitude": 41.958271,
      "date_created": "2020-12-15 02:22:00-05"
    },
    {
      "x": -87.646042,
      "y": 41.913784,
      "objectid": 858,
      "store_name": "Moms Enterprise Inc",
      "address": "701 W Willow St",
      "address_line__2": null,
      "city": "Chicago",
      "state": "IL",
      "zip5": 60614,
      "zip4": "5107",
      "county": "COOK",
      "longitude": -87.646042,
      "latitude": 41.913784,
      "date_created": "2020-12-15 02:22:00-05"
    },
    {
      "x": -87.632507,
      "y": 41.883957,
      "objectid": 1029,
      "store_name": "7-Eleven Store 34724K",
      "address": "128 N la Salle St",
      "address_line__2": null,
      "city": "Chicago",
      "state": "IL",
      "zip5": 60602,
      "zip4": "1001",
      "county": "COOK",
      "longitude": -87.632507,
      "latitude": 41.883957,
      "date_created": "2020-12-15 02:22:00-05"
    },
    {
      "x": -87.673882,
      "y": 41.771889,
      "objectid": 1154,
      "store_name": "Kna Food & Liquor",
      "address": "2001 W Marquette Rd",
      "address_line__2": null,
      "city": "Chicago",
      "state": "IL",
      "zip5": 60636,
      "zip4": "2520",
      "county": "COOK",
      "longitude": -87.673882,
      "latitude": 41.771889,
      "date_created": "2020-12-15 02:22:00-05"
    },
    {
      "x": -87.630966,
      "y": 41.759071,
      "objectid": 1659,
      "store_name": "Lil BJ's Variety Shop",
      "address": "7426 S Vincennes Ave",
      "address_line__2": null,
      "city": "Chicago",
      "state": "IL",
      "zip5": 60621,
      "zip4": "3438",
      "county": "COOK",
      "longitude": -87.630966,
      "latitude": 41.759071,
      "date_created": "2020-12-15 02:22:00-05"
    },
    {
      "x": -87.6493,
      "y": 41.735584,
      "objectid": 1828,
      "store_name": "7 Seas Supermarket, Inc.",
      "address": "1015 W 87th St",
      "address_line__2": "Suite A",
      "city": "Chicago",
      "state": "IL",
      "zip5": 60620,
      "zip4": null,
      "county": "COOK",
      "longitude": -87.6493,
      "latitude": 41.735584,
      "date_created": "2020-12-15 02:22:00-05"
    },
    {
      "x": -87.708488,
      "y": 41.967381,
      "objectid": 2107,
      "store_name": "La Plazita Bakery",
      "address": "4734 N Kedzie Ave",
      "address_line__2": null,
      "city": "Chicago",
      "state": "IL",
      "zip5": 60625,
      "zip4": "4421",
      "county": "COOK",
      "longitude": -87.708488,
      "latitude": 41.967381,
      "date_created": "2020-12-15 02:22:00-05"
    },
    {
      "x": -87.69957,
      "y": 41.997047,
      "objectid": 2263,
      "store_name": "Lamassu Food Market Llc",
      "address": "6345 N California Ave",
      "address_line__2": null,
      "city": "Chicago",
      "state": "IL",
      "zip5": 60659,
      "zip4": "1701",
      "county": "COOK",
      "longitude": -87.69957,
      "latitude": 41.997047,
      "date_created": "2020-12-15 02:22:00-05"
    },
    {
      "x": -87.656624,
      "y": 41.973217,
      "objectid": 2226,
      "store_name": "VIETHOA PLAZA",
      "address": "1051 W Argyle St",
      "address_line__2": null,
      "city": "Chicago",
      "state": "IL",
      "zip5": 60640,
      "zip4": "3707",
      "county": "COOK",
      "longitude": -87.656624,
      "latitude": 41.973217,
      "date_created": "2020-12-15 02:22:00-05"
    },
    {
      "x": -87.60498,
      "y": 41.743721,
      "objectid": 4243,
      "store_name": "Falcon 1",
      "address": "8301 S Cottage Grove Ave",
      "address_line__2": null,
      "city": "Chicago",
      "state": "IL",
      "zip5": 60619,
      "zip4": "5905",
      "county": "COOK",
      "longitude": -87.60498,
      "latitude": 41.743721,
      "date_created": "2020-12-15 02:22:00-05"
    },
    {
      "x": -87.668747,
      "y": 41.812389,
      "objectid": 2606,
      "store_name": "Jimmys Foods Inc",
      "address": "4456 S Hermitage Ave",
      "address_line__2": null,
      "city": "Chicago",
      "state": "IL",
      "zip5": 60609,
      "zip4": "3143",
      "county": "COOK",
      "longitude": -87.668747,
      "latitude": 41.812389,
      "date_created": "2020-12-15 02:22:00-05"
    },
    {
      "x": -87.65815,
      "y": 41.973274,
      "objectid": 2677,
      "store_name": "J & A Convenient Store",
      "address": "1108 W Argyle St",
      "address_line__2": null,
      "city": "Chicago",
      "state": "IL",
      "zip5": 60640,
      "zip4": "3610",
      "county": "COOK",
      "longitude": -87.65815,
      "latitude": 41.973274,
      "date_created": "2020-12-15 02:22:00-05"
    },
    {
      "x": -87.726509,
      "y": 41.908772,
      "objectid": 2892,
      "store_name": "Shop 4 Less",
      "address": "1532 N Pulaski Rd",
      "address_line__2": null,
      "city": "Chicago",
      "state": "IL",
      "zip5": 60651,
      "zip4": "1937",
      "county": "COOK",
      "longitude": -87.726509,
      "latitude": 41.908772,
      "date_created": "2020-12-15 02:22:00-05"
    },
    {
      "x": -87.727089,
      "y": 41.931816,
      "objectid": 3714,
      "store_name": "Cermak Produce",
      "address": "4000 W Diversey Ave",
      "address_line__2": null,
      "city": "Chicago",
      "state": "IL",
      "zip5": 60639,
      "zip4": "2102",
      "county": "COOK",
      "longitude": -87.727089,
      "latitude": 41.931816,
      "date_created": "2020-12-15 02:22:00-05"
    },
    {
      "x": -87.646767,
      "y": 41.946617,
      "objectid": 4074,
      "store_name": "JEWEL 3514",
      "address": "3531 N Broadway St",
      "address_line__2": null,
      "city": "Chicago",
      "state": "IL",
      "zip5": 60657,
      "zip4": "1825",
      "county": "COOK",
      "longitude": -87.646767,
      "latitude": 41.946617,
      "date_created": "2020-12-15 02:22:00-05"
    },
    {
      "x": -87.704391,
      "y": 41.823902,
      "objectid": 4327,
      "store_name": "La Acambarense Bakery Llc",
      "address": "3815 S Kedzie Ave",
      "address_line__2": null,
      "city": "Chicago",
      "state": "IL",
      "zip5": 60632,
      "zip4": "2710",
      "county": "COOK",
      "longitude": -87.704391,
      "latitude": 41.823902,
      "date_created": "2020-12-15 02:22:00-05"
    },
    {
      "x": -87.771408,
      "y": 41.794281,
      "objectid": 4340,
      "store_name": "JEWEL 3721",
      "address": "6107 S Archer Ave",
      "address_line__2": null,
      "city": "Chicago",
      "state": "IL",
      "zip5": 60638,
      "zip4": "2743",
      "county": "COOK",
      "longitude": -87.771408,
      "latitude": 41.794281,
      "date_created": "2020-12-15 02:22:00-05"
    },
    {
      "x": -87.653229,
      "y": 41.925369,
      "objectid": 2434,
      "store_name": "Whole Foods Market 10567",
      "address": "959 W Fullerton Ave",
      "address_line__2": null,
      "city": "Chicago",
      "state": "IL",
      "zip5": 60614,
      "zip4": "2406",
      "county": "COOK",
      "longitude": -87.653229,
      "latitude": 41.925369,
      "date_created": "2020-12-15 02:22:00-05"
    },
    {
      "x": -87.708427,
      "y": 41.967651,
      "objectid": 3017,
      "store_name": "Andys Fruit Ranch",
      "address": "4733 N Kedzie Ave",
      "address_line__2": null,
      "city": "Chicago",
      "state": "IL",
      "zip5": 60625,
      "zip4": "4420",
      "county": "COOK",
      "longitude": -87.708427,
      "latitude": 41.967651,
      "date_created": "2020-12-15 02:22:00-05"
    },
    {
      "x": -87.72377,
      "y": 41.968315,
      "objectid": 3400,
      "store_name": "Cremeria La Ordena 2",
      "address": "3810 W Lawrence Ave",
      "address_line__2": null,
      "city": "Chicago",
      "state": "IL",
      "zip5": 60625,
      "zip4": "6206",
      "county": "COOK",
      "longitude": -87.72377,
      "latitude": 41.968315,
      "date_created": "2020-12-15 02:22:00-05"
    },
    {
      "x": -87.745262,
      "y": 41.879105,
      "objectid": 3616,
      "store_name": "West Side Warehouse Inc",
      "address": "118 S Cicero Ave",
      "address_line__2": null,
      "city": "Chicago",
      "state": "IL",
      "zip5": 60644,
      "zip4": "4499",
      "county": "COOK",
      "longitude": -87.745262,
      "latitude": 41.879105,
      "date_created": "2020-12-15 02:22:00-05"
    },
    {
      "x": -87.61895,
      "y": 41.809425,
      "objectid": 3632,
      "store_name": "New York Deli Inc",
      "address": "316 E 47th St",
      "address_line__2": null,
      "city": "Chicago",
      "state": "IL",
      "zip5": 60653,
      "zip4": "4004",
      "county": "COOK",
      "longitude": -87.61895,
      "latitude": 41.809425,
      "date_created": "2020-12-15 02:22:00-05"
    },
    {
      "x": -87.605095,
      "y": 41.747463,
      "objectid": 3893,
      "store_name": "Paradise Grocery",
      "address": "8101 S Cottage Grove Ave",
      "address_line__2": null,
      "city": "Chicago",
      "state": "IL",
      "zip5": 60619,
      "zip4": "5103",
      "county": "COOK",
      "longitude": -87.605095,
      "latitude": 41.747463,
      "date_created": "2020-12-15 02:22:00-05"
    },
    {
      "x": -87.641136,
      "y": 41.883968,
      "objectid": 4195,
      "store_name": "City Fresh Metra Market",
      "address": "131 N Clinton St",
      "address_line__2": null,
      "city": "Chicago",
      "state": "IL",
      "zip5": 60661,
      "zip4": null,
      "county": "COOK",
      "longitude": -87.641136,
      "latitude": 41.883968,
      "date_created": "2020-12-15 02:22:00-05"
    },
    {
      "x": -87.66153,
      "y": 41.857502,
      "objectid": 4290,
      "store_name": "LA CASA DEL PUEBLO, INC.",
      "address": "1810 S Blue Island Ave",
      "address_line__2": null,
      "city": "Chicago",
      "state": "IL",
      "zip5": 60608,
      "zip4": "3098",
      "county": "COOK",
      "longitude": -87.66153,
      "latitude": 41.857502,
      "date_created": "2020-12-15 02:22:00-05"
    },
    {
      "x": -87.694405,
      "y": 41.812664,
      "objectid": 4418,
      "store_name": "Xpress Food Market",
      "address": "4458 S California Ave",
      "address_line__2": null,
      "city": "Chicago",
      "state": "IL",
      "zip5": 60632,
      "zip4": "1933",
      "county": "COOK",
      "longitude": -87.694405,
      "latitude": 41.812664,
      "date_created": "2020-12-15 02:22:00-05"
    },
    {
      "x": -87.777458,
      "y": 41.953102,
      "objectid": 4513,
      "store_name": "Szymanski Deli",
      "address": "6016 W Irving Park Rd",
      "address_line__2": null,
      "city": "Chicago",
      "state": "IL",
      "zip5": 60634,
      "zip4": "2520",
      "county": "COOK",
      "longitude": -87.777458,
      "latitude": 41.953102,
      "date_created": "2020-12-15 02:22:00-05"
    },
    {
      "x": -87.631561,
      "y": 41.909924,
      "objectid": 4254,
      "store_name": "Potash Markets",
      "address": "1525 N Clark St",
      "address_line__2": null,
      "city": "Chicago",
      "state": "IL",
      "zip5": 60610,
      "zip4": "8052",
      "county": "COOK",
      "longitude": -87.631561,
      "latitude": 41.909924,
      "date_created": "2020-12-15 02:22:00-05"
    },
    {
      "x": -87.663475,
      "y": 41.920994,
      "objectid": 4747,
      "store_name": "7-Eleven 33508C",
      "address": "2181 N Clybourn Ave",
      "address_line__2": null,
      "city": "Chicago",
      "state": "IL",
      "zip5": 60614,
      "zip4": "4035",
      "county": "COOK",
      "longitude": -87.663475,
      "latitude": 41.920994,
      "date_created": "2020-12-15 02:22:00-05"
    },
    {
      "x": -87.700111,
      "y": 41.706261,
      "objectid": 4757,
      "store_name": "JEWEL 3114",
      "address": "3128 W 103rd St",
      "address_line__2": null,
      "city": "Chicago",
      "state": "IL",
      "zip5": 60655,
      "zip4": "2010",
      "county": "COOK",
      "longitude": -87.700111,
      "latitude": 41.706261,
      "date_created": "2020-12-15 02:22:00-05"
    },
    {
      "x": -87.714554,
      "y": 41.910004,
      "objectid": 5304,
      "store_name": "Rio Grande Fruit Market Inc",
      "address": "3501 W North Ave",
      "address_line__2": null,
      "city": "Chicago",
      "state": "IL",
      "zip5": 60647,
      "zip4": "4808",
      "county": "COOK",
      "longitude": -87.714554,
      "latitude": 41.910004,
      "date_created": "2020-12-15 02:22:00-05"
    },
    {
      "x": -87.83667,
      "y": 41.960049,
      "objectid": 4837,
      "store_name": "Jewel 3477",
      "address": "4734 N Pueblo",
      "address_line__2": null,
      "city": "Chicago",
      "state": "IL",
      "zip5": 60656,
      "zip4": null,
      "county": "COOK",
      "longitude": -87.83667,
      "latitude": 41.960049,
      "date_created": "2020-12-15 02:22:00-05"
    },
    {
      "x": -87.66301,
      "y": 41.736805,
      "objectid": 4869,
      "store_name": "Phillips 66",
      "address": "8645 S Ashland Ave",
      "address_line__2": null,
      "city": "Chicago",
      "state": "IL",
      "zip5": 60620,
      "zip4": "4830",
      "county": "COOK",
      "longitude": -87.66301,
      "latitude": 41.736805,
      "date_created": "2020-12-15 02:22:00-05"
    },
    {
      "x": -87.624428,
      "y": 41.877827,
      "objectid": 5247,
      "store_name": "CVS Pharmacey 10942",
      "address": "310 S Michigan Ave",
      "address_line__2": null,
      "city": "Chicago",
      "state": "IL",
      "zip5": 60604,
      "zip4": "4207",
      "county": "COOK",
      "longitude": -87.624428,
      "latitude": 41.877827,
      "date_created": "2020-12-15 02:22:00-05"
    },
    {
      "x": -87.659981,
      "y": 41.806778,
      "objectid": 5493,
      "store_name": "Oni Atare Foods",
      "address": "4801 S Loomis Blvd",
      "address_line__2": null,
      "city": "Chicago",
      "state": "IL",
      "zip5": 60609,
      "zip4": "4219",
      "county": "COOK",
      "longitude": -87.659981,
      "latitude": 41.806778,
      "date_created": "2020-12-15 02:22:00-05"
    },
    {
      "x": -87.64621,
      "y": 41.932724,
      "objectid": 5929,
      "store_name": "Trader Joes 703",
      "address": "667 W Diversey Pkwy",
      "address_line__2": null,
      "city": "Chicago",
      "state": "IL",
      "zip5": 60614,
      "zip4": "1510",
      "county": "COOK",
      "longitude": -87.64621,
      "latitude": 41.932724,
      "date_created": "2020-12-15 02:22:00-05"
    },
    {
      "x": -87.63166,
      "y": 41.903938,
      "objectid": 5930,
      "store_name": "Jewel Food Store 3234",
      "address": "102 W Division St",
      "address_line__2": null,
      "city": "Chicago",
      "state": "IL",
      "zip5": 60610,
      "zip4": null,
      "county": "COOK",
      "longitude": -87.63166,
      "latitude": 41.903938,
      "date_created": "2020-12-15 02:22:00-05"
    },
    {
      "x": -87.666481,
      "y": 41.866371,
      "objectid": 6755,
      "store_name": "JEWEL 3344",
      "address": "1220 S Ashland Ave",
      "address_line__2": null,
      "city": "Chicago",
      "state": "IL",
      "zip5": 60608,
      "zip4": "1402",
      "county": "COOK",
      "longitude": -87.666481,
      "latitude": 41.866371,
      "date_created": "2020-12-15 02:22:00-05"
    },
    {
      "x": -87.694633,
      "y": 41.98278,
      "objectid": 6004,
      "store_name": "7-Eleven 17859C",
      "address": "5562 N Lincoln Ave",
      "address_line__2": null,
      "city": "Chicago",
      "state": "IL",
      "zip5": 60625,
      "zip4": "2213",
      "county": "COOK",
      "longitude": -87.694633,
      "latitude": 41.98278,
      "date_created": "2020-12-15 02:22:00-05"
    },
    {
      "x": -87.745224,
      "y": 41.886524,
      "objectid": 6209,
      "store_name": "Solo Deli & Grocery LLC",
      "address": "4759 W Lake St",
      "address_line__2": null,
      "city": "Chicago",
      "state": "IL",
      "zip5": 60644,
      "zip4": "2710",
      "county": "COOK",
      "longitude": -87.745224,
      "latitude": 41.886524,
      "date_created": "2020-12-15 02:22:00-05"
    },
    {
      "x": -87.690834,
      "y": 41.822277,
      "objectid": 6220,
      "store_name": "Syk Brighton Park Inc.",
      "address": "3935 S Archer Ave",
      "address_line__2": null,
      "city": "Chicago",
      "state": "IL",
      "zip5": 60632,
      "zip4": "1115",
      "county": "COOK",
      "longitude": -87.690834,
      "latitude": 41.822277,
      "date_created": "2020-12-15 02:22:00-05"
    },
    {
      "x": -87.691925,
      "y": 41.80835,
      "objectid": 6825,
      "store_name": "Kevin Grocery & Liquor, Ltd.",
      "address": "2700 W 47th St",
      "address_line__2": null,
      "city": "Chicago",
      "state": "IL",
      "zip5": 60632,
      "zip4": "1931",
      "county": "COOK",
      "longitude": -87.691925,
      "latitude": 41.80835,
      "date_created": "2020-12-15 02:22:00-05"
    },
    {
      "x": -87.612709,
      "y": 41.700043,
      "objectid": 6881,
      "store_name": "Pop-ee's Mini Mart",
      "address": "418 E 107th St",
      "address_line__2": null,
      "city": "Chicago",
      "state": "IL",
      "zip5": 60628,
      "zip4": "3724",
      "county": "COOK",
      "longitude": -87.612709,
      "latitude": 41.700043,
      "date_created": "2020-12-15 02:22:00-05"
    },
    {
      "x": -87.774101,
      "y": 41.793968,
      "objectid": 6003,
      "store_name": "Family Dollar 8532",
      "address": "6190 S Archer Ave",
      "address_line__2": null,
      "city": "Chicago",
      "state": "IL",
      "zip5": 60638,
      "zip4": "2642",
      "county": "COOK",
      "longitude": -87.774101,
      "latitude": 41.793968,
      "date_created": "2020-12-15 02:22:00-05"
    },
    {
      "x": -87.699257,
      "y": 41.898178,
      "objectid": 6448,
      "store_name": "3 Brothers",
      "address": "900 N Francisco Ave",
      "address_line__2": null,
      "city": "Chicago",
      "state": "IL",
      "zip5": 60622,
      "zip4": "4443",
      "county": "COOK",
      "longitude": -87.699257,
      "latitude": 41.898178,
      "date_created": "2020-12-15 02:22:00-05"
    },
    {
      "x": -87.70369,
      "y": 41.799637,
      "objectid": 6558,
      "store_name": "Carniceria La Hacienda No. 4, Inc.",
      "address": "5159 S Kedzie Ave",
      "address_line__2": null,
      "city": "Chicago",
      "state": "IL",
      "zip5": 60632,
      "zip4": "3126",
      "county": "COOK",
      "longitude": -87.70369,
      "latitude": 41.799637,
      "date_created": "2020-12-15 02:22:00-05"
    },
    {
      "x": -87.687599,
      "y": 41.997746,
      "objectid": 6765,
      "store_name": "Super Gift & Grocer",
      "address": "2305 1/2 W Devon Ave",
      "address_line__2": null,
      "city": "Chicago",
      "state": "IL",
      "zip5": 60659,
      "zip4": "2003",
      "county": "COOK",
      "longitude": -87.687599,
      "latitude": 41.997746,
      "date_created": "2020-12-15 02:22:00-05"
    },
    {
      "x": -87.651031,
      "y": 41.940346,
      "objectid": 7910,
      "store_name": "Target 3208",
      "address": "3204 N Clark St",
      "address_line__2": null,
      "city": "Chicago",
      "state": "IL",
      "zip5": 60657,
      "zip4": "1602",
      "county": "COOK",
      "longitude": -87.651031,
      "latitude": 41.940346,
      "date_created": "2020-12-15 02:22:00-05"
    },
    {
      "x": -87.605286,
      "y": 41.751038,
      "objectid": 7058,
      "store_name": "Munch & More Inc",
      "address": "7906 S Cottage Grove Ave",
      "address_line__2": null,
      "city": "Chicago",
      "state": "IL",
      "zip5": 60619,
      "zip4": "3911",
      "county": "COOK",
      "longitude": -87.605286,
      "latitude": 41.751038,
      "date_created": "2020-12-15 02:22:00-05"
    },
    {
      "x": -87.732002,
      "y": 41.909847,
      "objectid": 7431,
      "store_name": "CARNICERIA JIMENEZ INC",
      "address": "4204 W North Ave",
      "address_line__2": null,
      "city": "Chicago",
      "state": "IL",
      "zip5": 60639,
      "zip4": "4829",
      "county": "COOK",
      "longitude": -87.732002,
      "latitude": 41.909847,
      "date_created": "2020-12-15 02:22:00-05"
    },
    {
      "x": -87.674461,
      "y": 42.01202,
      "objectid": 7179,
      "store_name": "CHAPALA INC.",
      "address": "7117 N Clark St",
      "address_line__2": null,
      "city": "Chicago",
      "state": "IL",
      "zip5": 60626,
      "zip4": "2407",
      "county": "COOK",
      "longitude": -87.674461,
      "latitude": 42.01202,
      "date_created": "2020-12-15 02:22:00-05"
    },
    {
      "x": -87.767952,
      "y": 41.93858,
      "objectid": 7585,
      "store_name": "Tony's Finer Foods 1667",
      "address": "5630 W Belmont Ave",
      "address_line__2": null,
      "city": "Chicago",
      "state": "IL",
      "zip5": 60634,
      "zip4": "5301",
      "county": "COOK",
      "longitude": -87.767952,
      "latitude": 41.93858,
      "date_created": "2020-12-15 02:22:00-05"
    },
    {
      "x": -87.575386,
      "y": 41.72187,
      "objectid": 7960,
      "store_name": "Dollar General 19103",
      "address": "9520 S Jeffery Ave",
      "address_line__2": null,
      "city": "Chicago",
      "state": "IL",
      "zip5": 60617,
      "zip4": "4728",
      "county": "COOK",
      "longitude": -87.575386,
      "latitude": 41.72187,
      "date_created": "2020-12-15 02:22:00-05"
    },
    {
      "x": -87.632027,
      "y": 41.739433,
      "objectid": 9537,
      "store_name": "Aldi 88",
      "address": "8500 S Holland Rd",
      "address_line__2": null,
      "city": "Chicago",
      "state": "IL",
      "zip5": 60620,
      "zip4": "1338",
      "county": "COOK",
      "longitude": -87.632027,
      "latitude": 41.739433,
      "date_created": "2020-12-15 02:22:00-05"
    },
    {
      "x": -87.769508,
      "y": 41.898392,
      "objectid": 8000,
      "store_name": "AL RAHMAN, INC. D/B/A  BEST FOOD",
      "address": "5751 W Augusta Blvd",
      "address_line__2": null,
      "city": "Chicago",
      "state": "IL",
      "zip5": 60651,
      "zip4": "2616",
      "county": "COOK",
      "longitude": -87.769508,
      "latitude": 41.898392,
      "date_created": "2020-12-15 02:22:00-05"
    },
    {
      "x": -87.664803,
      "y": 41.803802,
      "objectid": 8065,
      "store_name": "SUPERMERCADO EL CUBANO INC",
      "address": "4939 S Ashland Ave",
      "address_line__2": null,
      "city": "Chicago",
      "state": "IL",
      "zip5": 60609,
      "zip4": "4912",
      "county": "COOK",
      "longitude": -87.664803,
      "latitude": 41.803802,
      "date_created": "2020-12-15 02:22:00-05"
    },
    {
      "x": -87.630112,
      "y": 41.89492,
      "objectid": 8382,
      "store_name": "Whole Foods Market 10107",
      "address": "30 W Huron St",
      "address_line__2": null,
      "city": "Chicago",
      "state": "IL",
      "zip5": 60610,
      "zip4": "6402",
      "county": "COOK",
      "longitude": -87.630112,
      "latitude": 41.89492,
      "date_created": "2020-12-15 02:22:00-05"
    },
    {
      "x": -87.667625,
      "y": 41.99815,
      "objectid": 8535,
      "store_name": "DEVON MARKET",
      "address": "1440 W Devon Ave",
      "address_line__2": null,
      "city": "Chicago",
      "state": "IL",
      "zip5": 60660,
      "zip4": "1326",
      "county": "COOK",
      "longitude": -87.667625,
      "latitude": 41.99815,
      "date_created": "2020-12-15 02:22:00-05"
    },
    {
      "x": -87.723679,
      "y": 41.809433,
      "objectid": 8869,
      "store_name": "Pulaski Food & Discount",
      "address": "4614 S Pulaski Rd",
      "address_line__2": null,
      "city": "Chicago",
      "state": "IL",
      "zip5": 60632,
      "zip4": "4038",
      "county": "COOK",
      "longitude": -87.723679,
      "latitude": 41.809433,
      "date_created": "2020-12-15 02:22:00-05"
    },
    {
      "x": -87.714348,
      "y": 41.953876,
      "objectid": 9144,
      "store_name": "Mayur Market Inc",
      "address": "3432 W Irving Park Rd",
      "address_line__2": null,
      "city": "Chicago",
      "state": "IL",
      "zip5": 60618,
      "zip4": "3215",
      "county": "COOK",
      "longitude": -87.714348,
      "latitude": 41.953876,
      "date_created": "2020-12-15 02:22:00-05"
    },
    {
      "x": -87.647545,
      "y": 41.890266,
      "objectid": 9317,
      "store_name": "Halsted Packing House",
      "address": "445 N Halsted St",
      "address_line__2": null,
      "city": "Chicago",
      "state": "IL",
      "zip5": 60622,
      "zip4": "6518",
      "county": "COOK",
      "longitude": -87.647545,
      "latitude": 41.890266,
      "date_created": "2020-12-15 02:22:00-05"
    },
    {
      "x": -87.744873,
      "y": 41.870712,
      "objectid": 8325,
      "store_name": "Amz Enterprise Inc",
      "address": "749 S Cicero Ave",
      "address_line__2": null,
      "city": "Chicago",
      "state": "IL",
      "zip5": 60644,
      "zip4": "5210",
      "county": "COOK",
      "longitude": -87.744873,
      "latitude": 41.870712,
      "date_created": "2020-12-15 02:22:00-05"
    },
    {
      "x": -87.618011,
      "y": 41.707226,
      "objectid": 8795,
      "store_name": "Dollar Tree 7261",
      "address": "209 E 103rd St",
      "address_line__2": null,
      "city": "Chicago",
      "state": "IL",
      "zip5": 60628,
      "zip4": "2807",
      "county": "COOK",
      "longitude": -87.618011,
      "latitude": 41.707226,
      "date_created": "2020-12-15 02:22:00-05"
    },
    {
      "x": -87.743141,
      "y": 41.801315,
      "objectid": 8802,
      "store_name": "Dollar General 19100",
      "address": "5018 S Cicero Ave",
      "address_line__2": null,
      "city": "Chicago",
      "state": "IL",
      "zip5": 60638,
      "zip4": "2117",
      "county": "COOK",
      "longitude": -87.743141,
      "latitude": 41.801315,
      "date_created": "2020-12-15 02:22:00-05"
    },
    {
      "x": -87.544205,
      "y": 41.743729,
      "objectid": 9103,
      "store_name": "83rd Street Grocery",
      "address": "8357 S Buffalo Ave",
      "address_line__2": null,
      "city": "Chicago",
      "state": "IL",
      "zip5": 60617,
      "zip4": "2608",
      "county": "COOK",
      "longitude": -87.544205,
      "latitude": 41.743729,
      "date_created": "2020-12-15 02:22:00-05"
    },
    {
      "x": -87.694084,
      "y": 41.793716,
      "objectid": 9588,
      "store_name": "Marathon",
      "address": "2800 W 55th St",
      "address_line__2": null,
      "city": "Chicago",
      "state": "IL",
      "zip5": 60632,
      "zip4": "2205",
      "county": "COOK",
      "longitude": -87.694084,
      "latitude": 41.793716,
      "date_created": "2020-12-15 02:22:00-05"
    },
    {
      "x": -87.667557,
      "y": 41.903702,
      "objectid": 9876,
      "store_name": "CVS 5394",
      "address": "1200 N Ashland",
      "address_line__2": null,
      "city": "Chicago",
      "state": "IL",
      "zip5": 60622,
      "zip4": null,
      "county": "COOK",
      "longitude": -87.667557,
      "latitude": 41.903702,
      "date_created": "2020-12-15 02:22:00-05"
    },
    {
      "x": -87.726425,
      "y": 41.801247,
      "objectid": 9844,
      "store_name": "Supermercado La Gloria 4 Inc",
      "address": "5050 S Archer Ave",
      "address_line__2": null,
      "city": "Chicago",
      "state": "IL",
      "zip5": 60632,
      "zip4": "4509",
      "county": "COOK",
      "longitude": -87.726425,
      "latitude": 41.801247,
      "date_created": "2020-12-15 02:22:00-05"
    },
    {
      "x": -87.713356,
      "y": 41.946537,
      "objectid": 10200,
      "store_name": "Family Dollar 12335",
      "address": "3411 W Addison St",
      "address_line__2": null,
      "city": "Chicago",
      "state": "IL",
      "zip5": 60618,
      "zip4": "4249",
      "county": "COOK",
      "longitude": -87.713356,
      "latitude": 41.946537,
      "date_created": "2020-12-15 02:22:00-05"
    },
    {
      "x": -87.746704,
      "y": 41.924271,
      "objectid": 9984,
      "store_name": "Dollar Tree 4475",
      "address": "4800 W Fullerton Ave",
      "address_line__2": null,
      "city": "Chicago",
      "state": "IL",
      "zip5": 60639,
      "zip4": "2504",
      "county": "COOK",
      "longitude": -87.746704,
      "latitude": 41.924271,
      "date_created": "2020-12-15 02:22:00-05"
    },
    {
      "x": -87.660126,
      "y": 41.986305,
      "objectid": 10148,
      "store_name": "Dollar General 19102",
      "address": "5725 N Broadway St",
      "address_line__2": null,
      "city": "Chicago",
      "state": "IL",
      "zip5": 60660,
      "zip4": "4301",
      "county": "COOK",
      "longitude": -87.660126,
      "latitude": 41.986305,
      "date_created": "2020-12-15 02:22:00-05"
    },
    {
      "x": -87.768051,
      "y": 41.976051,
      "objectid": 10293,
      "store_name": "Dollar General 19101",
      "address": "5255 N Milwaukee Ave",
      "address_line__2": null,
      "city": "Chicago",
      "state": "IL",
      "zip5": 60630,
      "zip4": "4634",
      "county": "COOK",
      "longitude": -87.768051,
      "latitude": 41.976051,
      "date_created": "2020-12-15 02:22:00-05"
    },
    {
      "x": -87.73703,
      "y": 41.924389,
      "objectid": 10089,
      "store_name": "INTERNATIONAL FOODS N W  INC",
      "address": "4404 W Fullerton Ave",
      "address_line__2": null,
      "city": "Chicago",
      "state": "IL",
      "zip5": 60639,
      "zip4": "1932",
      "county": "COOK",
      "longitude": -87.73703,
      "latitude": 41.924389,
      "date_created": "2020-12-15 02:22:00-05"
    },
    {
      "x": -87.662766,
      "y": 41.722801,
      "objectid": 10234,
      "store_name": "JEWEL 3176",
      "address": "9400 S Ashland Ave",
      "address_line__2": null,
      "city": "Chicago",
      "state": "IL",
      "zip5": 60620,
      "zip4": "5121",
      "county": "COOK",
      "longitude": -87.662766,
      "latitude": 41.722801,
      "date_created": "2020-12-15 02:22:00-05"
    },
    {
      "x": -87.726463,
      "y": 41.924461,
      "objectid": 10244,
      "store_name": "Bjc Gas Stations Inc.",
      "address": "3959 W Fullerton Ave",
      "address_line__2": null,
      "city": "Chicago",
      "state": "IL",
      "zip5": 60647,
      "zip4": "2243",
      "county": "COOK",
      "longitude": -87.726463,
      "latitude": 41.924461,
      "date_created": "2020-12-15 02:22:00-05"
    },
    {
      "x": -87.658897,
      "y": 41.965427,
      "objectid": 10468,
      "store_name": "7-Eleven 34133A",
      "address": "1138 W Wilson Ave",
      "address_line__2": null,
      "city": "Chicago",
      "state": "IL",
      "zip5": 60640,
      "zip4": "5617",
      "county": "COOK",
      "longitude": -87.658897,
      "latitude": 41.965427,
      "date_created": "2020-12-15 02:22:00-05"
    },
    {
      "x": -87.695274,
      "y": 41.848652,
      "objectid": 10514,
      "store_name": "Chava Grocery Inc",
      "address": "2349 S California Ave",
      "address_line__2": null,
      "city": "Chicago",
      "state": "IL",
      "zip5": 60608,
      "zip4": "3628",
      "county": "COOK",
      "longitude": -87.695274,
      "latitude": 41.848652,
      "date_created": "2020-12-15 02:22:00-05"
    },
    {
      "x": -87.606049,
      "y": 41.784634,
      "objectid": 10424,
      "store_name": "Jewel Food Store 3082",
      "address": "6014 S Cottage Grove Ave",
      "address_line__2": null,
      "city": "Chicago",
      "state": "IL",
      "zip5": 60637,
      "zip4": "2526",
      "county": "COOK",
      "longitude": -87.606049,
      "latitude": 41.784634,
      "date_created": "2020-12-15 02:22:00-05"
    },
    {
      "x": -87.557755,
      "y": 41.630062,
      "objectid": 10703,
      "store_name": "All Foods Inc",
      "address": "2456 E State St",
      "address_line__2": null,
      "city": "Chicago",
      "state": "IL",
      "zip5": 60633,
      "zip4": "2230",
      "county": "COOK",
      "longitude": -87.557755,
      "latitude": 41.630062,
      "date_created": "2020-12-15 02:22:00-05"
    },
    {
      "x": -87.753281,
      "y": 41.924206,
      "objectid": 11591,
      "store_name": "Gaby'z Panaderia Y Pizzeria",
      "address": "5050 W Fullerton Ave",
      "address_line__2": null,
      "city": "Chicago",
      "state": "IL",
      "zip5": 60639,
      "zip4": "2414",
      "county": "COOK",
      "longitude": -87.753281,
      "latitude": 41.924206,
      "date_created": "2020-12-15 02:22:00-05"
    },
    {
      "x": -87.815628,
      "y": 41.945183,
      "objectid": 10962,
      "store_name": "Addison Food & Liquor",
      "address": "7532 W Addison St",
      "address_line__2": null,
      "city": "Chicago",
      "state": "IL",
      "zip5": 60634,
      "zip4": "3233",
      "county": "COOK",
      "longitude": -87.815628,
      "latitude": 41.945183,
      "date_created": "2020-12-15 02:22:00-05"
    },
    {
      "x": -87.605309,
      "y": 41.752213,
      "objectid": 10991,
      "store_name": "Town Dollar Stop",
      "address": "7848 S Cottage Grove Ave",
      "address_line__2": null,
      "city": "Chicago",
      "state": "IL",
      "zip5": 60619,
      "zip4": "3104",
      "county": "COOK",
      "longitude": -87.605309,
      "latitude": 41.752213,
      "date_created": "2020-12-15 02:22:00-05"
    },
    {
      "x": -87.760277,
      "y": 41.938679,
      "objectid": 11054,
      "store_name": "Jimenez Fresh Market",
      "address": "5330 W Belmont Ave",
      "address_line__2": null,
      "city": "Chicago",
      "state": "IL",
      "zip5": 60641,
      "zip4": "4103",
      "county": "COOK",
      "longitude": -87.760277,
      "latitude": 41.938679,
      "date_created": "2020-12-15 02:22:00-05"
    },
    {
      "x": -87.810669,
      "y": 41.974514,
      "objectid": 11360,
      "store_name": "Jewel 3296",
      "address": "7342 W Foster",
      "address_line__2": null,
      "city": "Chicago",
      "state": "IL",
      "zip5": 60656,
      "zip4": null,
      "county": "COOK",
      "longitude": -87.810669,
      "latitude": 41.974514,
      "date_created": "2020-12-15 02:22:00-05"
    },
    {
      "x": -87.685593,
      "y": 41.853703,
      "objectid": 11646,
      "store_name": "South Western Shell",
      "address": "2107 S Western Ave",
      "address_line__2": null,
      "city": "Chicago",
      "state": "IL",
      "zip5": 60608,
      "zip4": "3813",
      "county": "COOK",
      "longitude": -87.685593,
      "latitude": 41.853703,
      "date_created": "2020-12-15 02:22:00-05"
    },
    {
      "x": -87.583588,
      "y": 41.722313,
      "objectid": 12004,
      "store_name": "JEWEL 3092",
      "address": "1655 E 95th St",
      "address_line__2": null,
      "city": "Chicago",
      "state": "IL",
      "zip5": 60617,
      "zip4": "4707",
      "county": "COOK",
      "longitude": -87.583588,
      "latitude": 41.722313,
      "date_created": "2020-12-15 02:22:00-05"
    },
    {
      "x": -87.767395,
      "y": 41.9669,
      "objectid": 12025,
      "store_name": "JEWEL 3282",
      "address": "4729 N Central Ave",
      "address_line__2": null,
      "city": "Chicago",
      "state": "IL",
      "zip5": 60630,
      "zip4": "3269",
      "county": "COOK",
      "longitude": -87.767395,
      "latitude": 41.9669,
      "date_created": "2020-12-15 02:22:00-05"
    },
    {
      "x": -87.605629,
      "y": 41.751305,
      "objectid": 12058,
      "store_name": "Mega Food Mart",
      "address": "750 E 79th St",
      "address_line__2": null,
      "city": "Chicago",
      "state": "IL",
      "zip5": 60619,
      "zip4": "3118",
      "county": "COOK",
      "longitude": -87.605629,
      "latitude": 41.751305,
      "date_created": "2020-12-15 02:22:00-05"
    },
    {
      "x": -87.624825,
      "y": 41.764645,
      "objectid": 12232,
      "store_name": "MARKET FISHERIES INC",
      "address": "7127 S State St",
      "address_line__2": null,
      "city": "Chicago",
      "state": "IL",
      "zip5": 60619,
      "zip4": "1017",
      "county": "COOK",
      "longitude": -87.624825,
      "latitude": 41.764645,
      "date_created": "2020-12-15 02:22:00-05"
    },
    {
      "x": -87.733063,
      "y": 41.924427,
      "objectid": 12506,
      "store_name": "Shah Mini Mart",
      "address": "4234 W Fullerton Ave",
      "address_line__2": null,
      "city": "Chicago",
      "state": "IL",
      "zip5": 60639,
      "zip4": "2050",
      "county": "COOK",
      "longitude": -87.733063,
      "latitude": 41.924427,
      "date_created": "2020-12-15 02:22:00-05"
    },
    {
      "x": -87.60527,
      "y": 41.75547,
      "objectid": 12427,
      "store_name": "M & J Chicken & fish Inc Best & Sub Food",
      "address": "7643 S Cottage Grove Ave",
      "address_line__2": null,
      "city": "Chicago",
      "state": "IL",
      "zip5": 60619,
      "zip4": "2516",
      "county": "COOK",
      "longitude": -87.60527,
      "latitude": 41.75547,
      "date_created": "2020-12-15 02:22:00-05"
    },
    {
      "x": -87.680672,
      "y": 41.851452,
      "objectid": 12766,
      "store_name": "Lulu's Grocery Inc. 1",
      "address": "2215 S Leavitt St",
      "address_line__2": null,
      "city": "Chicago",
      "state": "IL",
      "zip5": 60608,
      "zip4": "4007",
      "county": "COOK",
      "longitude": -87.680672,
      "latitude": 41.851452,
      "date_created": "2020-12-15 02:22:00-05"
    },
    {
      "x": -87.711342,
      "y": 41.88467,
      "objectid": 12662,
      "store_name": "Sham Market Inc",
      "address": "3400 W Lake St",
      "address_line__2": null,
      "city": "Chicago",
      "state": "IL",
      "zip5": 60624,
      "zip4": "1905",
      "county": "COOK",
      "longitude": -87.711342,
      "latitude": 41.88467,
      "date_created": "2020-12-15 02:22:00-05"
    },
    {
      "x": -87.646263,
      "y": 41.838833,
      "objectid": 12635,
      "store_name": "Cermak Produce No. 12 Inc",
      "address": "3033 S Halsted St",
      "address_line__2": null,
      "city": "Chicago",
      "state": "IL",
      "zip5": 60608,
      "zip4": "5804",
      "county": "COOK",
      "longitude": -87.646263,
      "latitude": 41.838833,
      "date_created": "2020-12-15 02:22:00-05"
    },
    {
      "x": -87.668579,
      "y": 41.982166,
      "objectid": 13518,
      "store_name": "JEWEL 3407",
      "address": "5516 N Clark St",
      "address_line__2": null,
      "city": "Chicago",
      "state": "IL",
      "zip5": 60640,
      "zip4": "1214",
      "county": "COOK",
      "longitude": -87.668579,
      "latitude": 41.982166,
      "date_created": "2020-12-15 02:22:00-05"
    },
    {
      "x": -87.696251,
      "y": 41.851864,
      "objectid": 13006,
      "store_name": "Prince Food Market, Inc.",
      "address": "2819 W Cermak Rd",
      "address_line__2": null,
      "city": "Chicago",
      "state": "IL",
      "zip5": 60623,
      "zip4": "3513",
      "county": "COOK",
      "longitude": -87.696251,
      "latitude": 41.851864,
      "date_created": "2020-12-15 02:22:00-05"
    },
    {
      "x": -87.723618,
      "y": 41.851433,
      "objectid": 13009,
      "store_name": "St John Group Incorporated",
      "address": "3939 W Ogden Ave",
      "address_line__2": null,
      "city": "Chicago",
      "state": "IL",
      "zip5": 60623,
      "zip4": "2486",
      "county": "COOK",
      "longitude": -87.723618,
      "latitude": 41.851433,
      "date_created": "2020-12-15 02:22:00-05"
    },
    {
      "x": -87.665482,
      "y": 41.750286,
      "objectid": 13340,
      "store_name": "Ma Quick Mart, Inc.",
      "address": "1653 W 79th St",
      "address_line__2": null,
      "city": "Chicago",
      "state": "IL",
      "zip5": 60620,
      "zip4": "4212",
      "county": "COOK",
      "longitude": -87.665482,
      "latitude": 41.750286,
      "date_created": "2020-12-15 02:22:00-05"
    },
    {
      "x": -87.656746,
      "y": 41.964382,
      "objectid": 13947,
      "store_name": "Selam Market And Restaurant Llc",
      "address": "4543 N Broadway St",
      "address_line__2": null,
      "city": "Chicago",
      "state": "IL",
      "zip5": 60640,
      "zip4": "5601",
      "county": "COOK",
      "longitude": -87.656746,
      "latitude": 41.964382,
      "date_created": "2020-12-15 02:22:00-05"
    },
    {
      "x": -87.699608,
      "y": 41.994373,
      "objectid": 13679,
      "store_name": "ALDI  62",
      "address": "6220 N California Ave",
      "address_line__2": null,
      "city": "Chicago",
      "state": "IL",
      "zip5": 60659,
      "zip4": "2608",
      "county": "COOK",
      "longitude": -87.699608,
      "latitude": 41.994373,
      "date_created": "2020-12-15 02:22:00-05"
    },
    {
      "x": -87.631241,
      "y": 41.816334,
      "objectid": 13862,
      "store_name": "Citgo",
      "address": "4300 S Wentworth Ave",
      "address_line__2": null,
      "city": "Chicago",
      "state": "IL",
      "zip5": 60609,
      "zip4": "3608",
      "county": "COOK",
      "longitude": -87.631241,
      "latitude": 41.816334,
      "date_created": "2020-12-15 02:22:00-05"
    },
    {
      "x": -87.652832,
      "y": 41.939968,
      "objectid": 14120,
      "store_name": "Fresh Stop Prouce And Market",
      "address": "930 W Belmont Ave",
      "address_line__2": null,
      "city": "Chicago",
      "state": "IL",
      "zip5": 60657,
      "zip4": "4493",
      "county": "COOK",
      "longitude": -87.652832,
      "latitude": 41.939968,
      "date_created": "2020-12-15 02:22:00-05"
    },
    {
      "x": -87.762245,
      "y": 41.778069,
      "objectid": 14666,
      "store_name": "LA PETITE PASTRY 11, INC.",
      "address": "5610 W 63rd St",
      "address_line__2": null,
      "city": "Chicago",
      "state": "IL",
      "zip5": 60638,
      "zip4": "5525",
      "county": "COOK",
      "longitude": -87.762245,
      "latitude": 41.778069,
      "date_created": "2020-12-15 02:22:00-05"
    },
    {
      "x": -87.660789,
      "y": 41.984146,
      "objectid": 14436,
      "store_name": "WALGREENS  4542",
      "address": "5625 N Ridge Ave",
      "address_line__2": null,
      "city": "Chicago",
      "state": "IL",
      "zip5": 60660,
      "zip4": "3434",
      "county": "COOK",
      "longitude": -87.660789,
      "latitude": 41.984146,
      "date_created": "2020-12-15 02:22:00-05"
    },
    {
      "x": -87.796043,
      "y": 41.938107,
      "objectid": 15332,
      "store_name": "WALGREENS  04935",
      "address": "6809 W Belmont Ave",
      "address_line__2": null,
      "city": "Chicago",
      "state": "IL",
      "zip5": 60634,
      "zip4": "4644",
      "county": "COOK",
      "longitude": -87.796043,
      "latitude": 41.938107,
      "date_created": "2020-12-15 02:22:00-05"
    },
    {
      "x": -87.707451,
      "y": 41.935764,
      "objectid": 14913,
      "store_name": "CARNICERIA RUIZ, INC",
      "address": "3001 N Kedzie Ave",
      "address_line__2": null,
      "city": "Chicago",
      "state": "IL",
      "zip5": 60618,
      "zip4": "6906",
      "county": "COOK",
      "longitude": -87.707451,
      "latitude": 41.935764,
      "date_created": "2020-12-15 02:22:00-05"
    },
    {
      "x": -87.73542,
      "y": 41.917103,
      "objectid": 15037,
      "store_name": "LA CENTRAL BAKERY",
      "address": "4348 W Armitage Ave",
      "address_line__2": null,
      "city": "Chicago",
      "state": "IL",
      "zip5": 60639,
      "zip4": "3507",
      "county": "COOK",
      "longitude": -87.73542,
      "latitude": 41.917103,
      "date_created": "2020-12-15 02:22:00-05"
    },
    {
      "x": -87.601448,
      "y": 41.751259,
      "objectid": 14881,
      "store_name": "FOOD TOWN",
      "address": "935 E 79th St",
      "address_line__2": null,
      "city": "Chicago",
      "state": "IL",
      "zip5": 60619,
      "zip4": "3244",
      "county": "COOK",
      "longitude": -87.601448,
      "latitude": 41.751259,
      "date_created": "2020-12-15 02:22:00-05"
    },
    {
      "x": -87.625771,
      "y": 41.866894,
      "objectid": 14893,
      "store_name": "Pride of Chicago 710",
      "address": "1221 S Wabash Ave",
      "address_line__2": null,
      "city": "Chicago",
      "state": "IL",
      "zip5": 60605,
      "zip4": "2412",
      "county": "COOK",
      "longitude": -87.625771,
      "latitude": 41.866894,
      "date_created": "2020-12-15 02:22:00-05"
    },
    {
      "x": -87.638885,
      "y": 41.857109,
      "objectid": 15164,
      "store_name": "Park To Shop Supermarket Canal",
      "address": "1835 S Canal St",
      "address_line__2": null,
      "city": "Chicago",
      "state": "IL",
      "zip5": 60616,
      "zip4": "1522",
      "county": "COOK",
      "longitude": -87.638885,
      "latitude": 41.857109,
      "date_created": "2020-12-15 02:22:00-05"
    },
    {
      "x": -87.605362,
      "y": 41.712379,
      "objectid": 15698,
      "store_name": "Two Blue Foods,inc 1",
      "address": "702 E 100th Pl",
      "address_line__2": null,
      "city": "Chicago",
      "state": "IL",
      "zip5": 60628,
      "zip4": "1688",
      "county": "COOK",
      "longitude": -87.605362,
      "latitude": 41.712379,
      "date_created": "2020-12-15 02:22:00-05"
    },
    {
      "x": -87.654701,
      "y": 41.963135,
      "objectid": 16184,
      "store_name": "Dollar Tree 7387",
      "address": "4445 N Sheridan Rd",
      "address_line__2": null,
      "city": "Chicago",
      "state": "IL",
      "zip5": 60640,
      "zip4": "5619",
      "county": "COOK",
      "longitude": -87.654701,
      "latitude": 41.963135,
      "date_created": "2020-12-15 02:22:00-05"
    },
    {
      "x": -87.657608,
      "y": 41.856251,
      "objectid": 15966,
      "store_name": "Los Cuatro Hermanos",
      "address": "1858 S Allport St",
      "address_line__2": null,
      "city": "Chicago",
      "state": "IL",
      "zip5": 60608,
      "zip4": "3206",
      "county": "COOK",
      "longitude": -87.657608,
      "latitude": 41.856251,
      "date_created": "2020-12-15 02:22:00-05"
    },
    {
      "x": -87.666267,
      "y": 41.998158,
      "objectid": 16074,
      "store_name": "Little Lagos Inc",
      "address": "1420 W Devon Ave",
      "address_line__2": null,
      "city": "Chicago",
      "state": "IL",
      "zip5": 60660,
      "zip4": "1312",
      "county": "COOK",
      "longitude": -87.666267,
      "latitude": 41.998158,
      "date_created": "2020-12-15 02:22:00-05"
    },
    {
      "x": -87.690842,
      "y": 41.899277,
      "objectid": 16205,
      "store_name": "PUERTO RICO FOODS & LIQUORS",
      "address": "2559 W Augusta Blvd",
      "address_line__2": null,
      "city": "Chicago",
      "state": "IL",
      "zip5": 60622,
      "zip4": "4561",
      "county": "COOK",
      "longitude": -87.690842,
      "latitude": 41.899277,
      "date_created": "2020-12-15 02:22:00-05"
    },
    {
      "x": -87.673149,
      "y": 42.019814,
      "objectid": 16442,
      "store_name": "PAULINA SUPERMARKET INC",
      "address": "7622 N Paulina St",
      "address_line__2": null,
      "city": "Chicago",
      "state": "IL",
      "zip5": 60626,
      "zip4": "1018",
      "county": "COOK",
      "longitude": -87.673149,
      "latitude": 42.019814,
      "date_created": "2020-12-15 02:22:00-05"
    },
    {
      "x": -87.634079,
      "y": 41.88192,
      "objectid": 16401,
      "store_name": "Walgreens 4349",
      "address": "201 W Madison",
      "address_line__2": null,
      "city": "Chicago",
      "state": "IL",
      "zip5": 60606,
      "zip4": null,
      "county": "COOK",
      "longitude": -87.634079,
      "latitude": 41.88192,
      "date_created": "2020-12-15 02:22:00-05"
    },
    {
      "x": -87.643951,
      "y": 41.877937,
      "objectid": 17207,
      "store_name": "7-Eleven 33726A",
      "address": "627 W Jackson Blvd",
      "address_line__2": null,
      "city": "Chicago",
      "state": "IL",
      "zip5": 60661,
      "zip4": "5606",
      "county": "COOK",
      "longitude": -87.643951,
      "latitude": 41.877937,
      "date_created": "2020-12-15 02:22:00-05"
    },
    {
      "x": -87.540062,
      "y": 41.680573,
      "objectid": 16704,
      "store_name": "Walgreens 13106",
      "address": "11801 S Avenue O",
      "address_line__2": null,
      "city": "Chicago",
      "state": "IL",
      "zip5": 60617,
      "zip4": "7334",
      "county": "COOK",
      "longitude": -87.540062,
      "latitude": 41.680573,
      "date_created": "2020-12-15 02:22:00-05"
    },
    {
      "x": -87.679298,
      "y": 41.971378,
      "objectid": 16657,
      "store_name": "Ravenswood Farmers Market",
      "address": "4900 N Damen Ave",
      "address_line__2": null,
      "city": "Chicago",
      "state": "IL",
      "zip5": 60625,
      "zip4": "1415",
      "county": "COOK",
      "longitude": -87.679298,
      "latitude": 41.971378,
      "date_created": "2020-12-15 02:22:00-05"
    },
    {
      "x": -87.660294,
      "y": 41.993073,
      "objectid": 17225,
      "store_name": "Walgreens 15197",
      "address": "6121 N Broadway St",
      "address_line__2": null,
      "city": "Chicago",
      "state": "IL",
      "zip5": 60660,
      "zip4": "2501",
      "county": "COOK",
      "longitude": -87.660294,
      "latitude": 41.993073,
      "date_created": "2020-12-15 02:22:00-05"
    },
    {
      "x": -87.640762,
      "y": 41.779881,
      "objectid": 17284,
      "store_name": "ALDI  92",
      "address": "620 W 63rd St",
      "address_line__2": null,
      "city": "Chicago",
      "state": "IL",
      "zip5": 60621,
      "zip4": "2012",
      "county": "COOK",
      "longitude": -87.640762,
      "latitude": 41.779881,
      "date_created": "2020-12-15 02:22:00-05"
    },
    {
      "x": -87.770622,
      "y": 41.880123,
      "objectid": 18084,
      "store_name": "Mario's Butcher Shop",
      "address": "5817 W Madison St",
      "address_line__2": null,
      "city": "Chicago",
      "state": "IL",
      "zip5": 60644,
      "zip4": "3840",
      "county": "COOK",
      "longitude": -87.770622,
      "latitude": 41.880123,
      "date_created": "2020-12-15 02:22:00-05"
    },
    {
      "x": -87.648567,
      "y": 41.949451,
      "objectid": 17582,
      "store_name": "7-eleven 29726G",
      "address": "3700 N Broadway St",
      "address_line__2": null,
      "city": "Chicago",
      "state": "IL",
      "zip5": 60613,
      "zip4": "4105",
      "county": "COOK",
      "longitude": -87.648567,
      "latitude": 41.949451,
      "date_created": "2020-12-15 02:22:00-05"
    },
    {
      "x": -87.668602,
      "y": 41.925144,
      "objectid": 17591,
      "store_name": "J. F. Service Inc.",
      "address": "1607 W Fullerton Ave",
      "address_line__2": null,
      "city": "Chicago",
      "state": "IL",
      "zip5": 60614,
      "zip4": "1919",
      "county": "COOK",
      "longitude": -87.668602,
      "latitude": 41.925144,
      "date_created": "2020-12-15 02:22:00-05"
    },
    {
      "x": -87.688225,
      "y": 41.942596,
      "objectid": 17857,
      "store_name": "Mariano's Fresh Market 8504",
      "address": "3350 N Western Ave",
      "address_line__2": null,
      "city": "Chicago",
      "state": "IL",
      "zip5": 60618,
      "zip4": "6213",
      "county": "COOK",
      "longitude": -87.688225,
      "latitude": 41.942596,
      "date_created": "2020-12-15 02:22:00-05"
    },
    {
      "x": -87.720757,
      "y": 41.937141,
      "objectid": 17873,
      "store_name": "Jalaram Foods And Liquor, Inc.",
      "address": "3086 N Milwaukee Ave",
      "address_line__2": null,
      "city": "Chicago",
      "state": "IL",
      "zip5": 60618,
      "zip4": "6611",
      "county": "COOK",
      "longitude": -87.720757,
      "latitude": 41.937141,
      "date_created": "2020-12-15 02:22:00-05"
    },
    {
      "x": -87.703682,
      "y": 41.924824,
      "objectid": 18010,
      "store_name": "Albany Liquors And Food",
      "address": "3048 W Fullerton Ave",
      "address_line__2": null,
      "city": "Chicago",
      "state": "IL",
      "zip5": 60647,
      "zip4": "2808",
      "county": "COOK",
      "longitude": -87.703682,
      "latitude": 41.924824,
      "date_created": "2020-12-15 02:22:00-05"
    },
    {
      "x": -87.631851,
      "y": 41.842133,
      "objectid": 18043,
      "store_name": "Star Light Food Market II",
      "address": "2832 S Wentworth Ave",
      "address_line__2": null,
      "city": "Chicago",
      "state": "IL",
      "zip5": 60616,
      "zip4": "2706",
      "county": "COOK",
      "longitude": -87.631851,
      "latitude": 41.842133,
      "date_created": "2020-12-15 02:22:00-05"
    },
    {
      "x": -87.77269,
      "y": 41.923862,
      "objectid": 18301,
      "store_name": "La Dulce Bakery Inc",
      "address": "5847 W Fullerton Ave",
      "address_line__2": null,
      "city": "Chicago",
      "state": "IL",
      "zip5": 60639,
      "zip4": "2357",
      "county": "COOK",
      "longitude": -87.77269,
      "latitude": 41.923862,
      "date_created": "2020-12-15 02:22:00-05"
    },
    {
      "x": -87.662094,
      "y": 41.892529,
      "objectid": 17518,
      "store_name": "Candys Grocery",
      "address": "1366 W Ohio St",
      "address_line__2": null,
      "city": "Chicago",
      "state": "IL",
      "zip5": 60642,
      "zip4": "6431",
      "county": "COOK",
      "longitude": -87.662094,
      "latitude": 41.892529,
      "date_created": "2020-12-15 02:22:00-05"
    },
    {
      "x": -87.699623,
      "y": 41.917435,
      "objectid": 17669,
      "store_name": "FOODSMART",
      "address": "2901 W Armitage Ave",
      "address_line__2": null,
      "city": "Chicago",
      "state": "IL",
      "zip5": 60647,
      "zip4": "3918",
      "county": "COOK",
      "longitude": -87.699623,
      "latitude": 41.917435,
      "date_created": "2020-12-15 02:22:00-05"
    },
    {
      "x": -87.714645,
      "y": 41.96114,
      "objectid": 17691,
      "store_name": "Fresco Supermarket Inc.",
      "address": "3434 W Montrose Ave",
      "address_line__2": null,
      "city": "Chicago",
      "state": "IL",
      "zip5": 60618,
      "zip4": "1138",
      "county": "COOK",
      "longitude": -87.714645,
      "latitude": 41.96114,
      "date_created": "2020-12-15 02:22:00-05"
    },
    {
      "x": -87.745842,
      "y": 41.898979,
      "objectid": 18539,
      "store_name": "Citgo Gas & Food Mart",
      "address": "1001 N Cicero Ave",
      "address_line__2": null,
      "city": "Chicago",
      "state": "IL",
      "zip5": 60651,
      "zip4": "3202",
      "county": "COOK",
      "longitude": -87.745842,
      "latitude": 41.898979,
      "date_created": "2020-12-15 02:22:00-05"
    },
    {
      "x": -87.756805,
      "y": 41.931435,
      "objectid": 18622,
      "store_name": "Jerusalem Discount Plus Inc.",
      "address": "5206 W Diversey Ave",
      "address_line__2": null,
      "city": "Chicago",
      "state": "IL",
      "zip5": 60639,
      "zip4": "1502",
      "county": "COOK",
      "longitude": -87.756805,
      "latitude": 41.931435,
      "date_created": "2020-12-15 02:22:00-05"
    },
    {
      "x": -87.703896,
      "y": 41.803101,
      "objectid": 18550,
      "store_name": "ALDI  28",
      "address": "4934 S Kedzie Ave",
      "address_line__2": null,
      "city": "Chicago",
      "state": "IL",
      "zip5": 60632,
      "zip4": "3008",
      "county": "COOK",
      "longitude": -87.703896,
      "latitude": 41.803101,
      "date_created": "2020-12-15 02:22:00-05"
    },
    {
      "x": -87.648865,
      "y": 41.929192,
      "objectid": 18834,
      "store_name": "Aaray Grocery",
      "address": "2601 N Halsted St",
      "address_line__2": null,
      "city": "Chicago",
      "state": "IL",
      "zip5": 60614,
      "zip4": "2301",
      "county": "COOK",
      "longitude": -87.648865,
      "latitude": 41.929192,
      "date_created": "2020-12-15 02:22:00-05"
    },
    {
      "x": -87.734039,
      "y": 41.917053,
      "objectid": 18724,
      "store_name": "CARNICERIA LEON GUANAJUATO",
      "address": "4301 W Armitage Ave",
      "address_line__2": null,
      "city": "Chicago",
      "state": "IL",
      "zip5": 60639,
      "zip4": "3511",
      "county": "COOK",
      "longitude": -87.734039,
      "latitude": 41.917053,
      "date_created": "2020-12-15 02:22:00-05"
    },
    {
      "x": -87.630173,
      "y": 41.859932,
      "objectid": 18790,
      "store_name": "Mariano's 8512",
      "address": "1615 S Clark St",
      "address_line__2": null,
      "city": "Chicago",
      "state": "IL",
      "zip5": 60616,
      "zip4": "1107",
      "county": "COOK",
      "longitude": -87.630173,
      "latitude": 41.859932,
      "date_created": "2020-12-15 02:22:00-05"
    },
    {
      "x": -87.667427,
      "y": 41.901203,
      "objectid": 18803,
      "store_name": "Ashland Market Inc.",
      "address": "1051 N Ashland Ave",
      "address_line__2": null,
      "city": "Chicago",
      "state": "IL",
      "zip5": 60622,
      "zip4": "3931",
      "county": "COOK",
      "longitude": -87.667427,
      "latitude": 41.901203,
      "date_created": "2020-12-15 02:22:00-05"
    },
    {
      "x": -87.674278,
      "y": 41.794594,
      "objectid": 19495,
      "store_name": "E & J Food & Liquors",
      "address": "5439 S Damen Ave",
      "address_line__2": null,
      "city": "Chicago",
      "state": "IL",
      "zip5": 60609,
      "zip4": "5647",
      "county": "COOK",
      "longitude": -87.674278,
      "latitude": 41.794594,
      "date_created": "2020-12-15 02:22:00-05"
    },
    {
      "x": -87.631592,
      "y": 41.707096,
      "objectid": 19095,
      "store_name": "Dollar General 14614",
      "address": "316 W 103rd St",
      "address_line__2": null,
      "city": "Chicago",
      "state": "IL",
      "zip5": 60628,
      "zip4": "2504",
      "county": "COOK",
      "longitude": -87.631592,
      "latitude": 41.707096,
      "date_created": "2020-12-15 02:22:00-05"
    },
    {
      "x": -87.605011,
      "y": 41.745293,
      "objectid": 19405,
      "store_name": "Chatham Meat & Grocery Inc",
      "address": "8211 S Cottage Grove Ave",
      "address_line__2": null,
      "city": "Chicago",
      "state": "IL",
      "zip5": 60619,
      "zip4": "5301",
      "county": "COOK",
      "longitude": -87.605011,
      "latitude": 41.745293,
      "date_created": "2020-12-15 02:22:00-05"
    },
    {
      "x": -87.711662,
      "y": 41.917377,
      "objectid": 19409,
      "store_name": "ARMITAGE PRODUCE INC",
      "address": "3334 W Armitage Ave",
      "address_line__2": null,
      "city": "Chicago",
      "state": "IL",
      "zip5": 60647,
      "zip4": "3718",
      "county": "COOK",
      "longitude": -87.711662,
      "latitude": 41.917377,
      "date_created": "2020-12-15 02:22:00-05"
    },
    {
      "x": -87.668427,
      "y": 41.98119,
      "objectid": 19437,
      "store_name": "Walgreens 13798",
      "address": "5440 N Clark St",
      "address_line__2": null,
      "city": "Chicago",
      "state": "IL",
      "zip5": 60640,
      "zip4": "1291",
      "county": "COOK",
      "longitude": -87.668427,
      "latitude": 41.98119,
      "date_created": "2020-12-15 02:22:00-05"
    },
    {
      "x": -87.552528,
      "y": 41.744564,
      "objectid": 19548,
      "store_name": "Tumara Food Mart Inc",
      "address": "2941 E 83rd St",
      "address_line__2": null,
      "city": "Chicago",
      "state": "IL",
      "zip5": 60617,
      "zip4": "2136",
      "county": "COOK",
      "longitude": -87.552528,
      "latitude": 41.744564,
      "date_created": "2020-12-15 02:22:00-05"
    },
    {
      "x": -87.670082,
      "y": 42.007885,
      "objectid": 19025,
      "store_name": "SK Food Mart 1",
      "address": "1600 W Morse Ave",
      "address_line__2": null,
      "city": "Chicago",
      "state": "IL",
      "zip5": 60626,
      "zip4": "3309",
      "county": "COOK",
      "longitude": -87.670082,
      "latitude": 42.007885,
      "date_created": "2020-12-15 02:22:00-05"
    },
    {
      "x": -87.626839,
      "y": 41.882038,
      "objectid": 19181,
      "store_name": "7-Eleven 33354B",
      "address": "29 E Madison St",
      "address_line__2": null,
      "city": "Chicago",
      "state": "IL",
      "zip5": 60602,
      "zip4": "0",
      "county": "COOK",
      "longitude": -87.626839,
      "latitude": 41.882038,
      "date_created": "2020-12-15 02:22:00-05"
    },
    {
      "x": -87.680115,
      "y": 41.926853,
      "objectid": 19183,
      "store_name": "Fresh Thyme Farmers Market 107CHI",
      "address": "2500 N Elston Ave",
      "address_line__2": null,
      "city": "Chicago",
      "state": "IL",
      "zip5": 60647,
      "zip4": "2004",
      "county": "COOK",
      "longitude": -87.680115,
      "latitude": 41.926853,
      "date_created": "2020-12-15 02:22:00-05"
    },
    {
      "x": -87.70388,
      "y": 41.844597,
      "objectid": 19511,
      "store_name": "CARNICERIA AGUASCALIENTES",
      "address": "3132 W 26th St",
      "address_line__2": null,
      "city": "Chicago",
      "state": "IL",
      "zip5": 60623,
      "zip4": "4029",
      "county": "COOK",
      "longitude": -87.70388,
      "latitude": 41.844597,
      "date_created": "2020-12-15 02:22:00-05"
    },
    {
      "x": -87.760521,
      "y": 41.902222,
      "objectid": 19898,
      "store_name": "Deen Food Mart Inc",
      "address": "5360 W Division St",
      "address_line__2": null,
      "city": "Chicago",
      "state": "IL",
      "zip5": 60651,
      "zip4": "1372",
      "county": "COOK",
      "longitude": -87.760521,
      "latitude": 41.902222,
      "date_created": "2020-12-15 02:22:00-05"
    },
    {
      "x": -87.663628,
      "y": 41.756821,
      "objectid": 19761,
      "store_name": "Dollar Tree 6219",
      "address": "7520 S Ashland Ave",
      "address_line__2": null,
      "city": "Chicago",
      "state": "IL",
      "zip5": 60620,
      "zip4": "4245",
      "county": "COOK",
      "longitude": -87.663628,
      "latitude": 41.756821,
      "date_created": "2020-12-15 02:22:00-05"
    },
    {
      "x": -87.686272,
      "y": 41.871288,
      "objectid": 20286,
      "store_name": "Sam's Quickstop",
      "address": "758 S Western Ave",
      "address_line__2": null,
      "city": "Chicago",
      "state": "IL",
      "zip5": 60612,
      "zip4": "3535",
      "county": "COOK",
      "longitude": -87.686272,
      "latitude": 41.871288,
      "date_created": "2020-12-15 02:22:00-05"
    },
    {
      "x": -87.605232,
      "y": 41.748379,
      "objectid": 20128,
      "store_name": "Mobil Fuel & Mini Mart",
      "address": "8058 S Cottage Grove Ave",
      "address_line__2": null,
      "city": "Chicago",
      "state": "IL",
      "zip5": 60619,
      "zip4": "4004",
      "county": "COOK",
      "longitude": -87.605232,
      "latitude": 41.748379,
      "date_created": "2020-12-15 02:22:00-05"
    },
    {
      "x": -87.553749,
      "y": 41.751919,
      "objectid": 20155,
      "store_name": "79th Fresh Food & Meat Market",
      "address": "2900 E 79th St",
      "address_line__2": null,
      "city": "Chicago",
      "state": "IL",
      "zip5": 60649,
      "zip4": "5216",
      "county": "COOK",
      "longitude": -87.553749,
      "latitude": 41.751919,
      "date_created": "2020-12-15 02:22:00-05"
    },
    {
      "x": -87.692986,
      "y": 41.846519,
      "objectid": 20448,
      "store_name": "Aaa Food Mart Inc",
      "address": "2700 W 25th St",
      "address_line__2": null,
      "city": "Chicago",
      "state": "IL",
      "zip5": 60608,
      "zip4": "4602",
      "county": "COOK",
      "longitude": -87.692986,
      "latitude": 41.846519,
      "date_created": "2020-12-15 02:22:00-05"
    },
    {
      "x": -87.747398,
      "y": 41.955837,
      "objectid": 20372,
      "store_name": "Dollar Tree 733",
      "address": "4118 N Cicero Ave",
      "address_line__2": null,
      "city": "Chicago",
      "state": "IL",
      "zip5": 60641,
      "zip4": "1808",
      "county": "COOK",
      "longitude": -87.747398,
      "latitude": 41.955837,
      "date_created": "2020-12-15 02:22:00-05"
    },
    {
      "x": -87.703079,
      "y": 41.775059,
      "objectid": 20381,
      "store_name": "Bp Amoco",
      "address": "6500 S Kedzie Ave",
      "address_line__2": null,
      "city": "Chicago",
      "state": "IL",
      "zip5": 60629,
      "zip4": "3431",
      "county": "COOK",
      "longitude": -87.703079,
      "latitude": 41.775059,
      "date_created": "2020-12-15 02:22:00-05"
    },
    {
      "x": -87.613487,
      "y": 41.823826,
      "objectid": 20917,
      "store_name": "Dollar General Store 13190",
      "address": "549 E Pershing Rd",
      "address_line__2": null,
      "city": "Chicago",
      "state": "IL",
      "zip5": 60653,
      "zip4": "1993",
      "county": "COOK",
      "longitude": -87.613487,
      "latitude": 41.823826,
      "date_created": "2020-12-15 02:22:00-05"
    },
    {
      "x": -87.745537,
      "y": 41.885826,
      "objectid": 20634,
      "store_name": "Lil Sam ",
      "address": "4800 W Fulton St",
      "address_line__2": "Unit C",
      "city": "Chicago",
      "state": "IL",
      "zip5": 60644,
      "zip4": "2622",
      "county": "COOK",
      "longitude": -87.745537,
      "latitude": 41.885826,
      "date_created": "2020-12-15 02:22:00-05"
    },
    {
      "x": -87.659531,
      "y": 41.684933,
      "objectid": 20760,
      "store_name": "R M Food Liquor Inc",
      "address": "1478 W 115th St",
      "address_line__2": null,
      "city": "Chicago",
      "state": "IL",
      "zip5": 60643,
      "zip4": "4465",
      "county": "COOK",
      "longitude": -87.659531,
      "latitude": 41.684933,
      "date_created": "2020-12-15 02:22:00-05"
    },
    {
      "x": -87.625793,
      "y": 41.867756,
      "objectid": 20953,
      "store_name": "Trader Joes 701",
      "address": "1147 South Wabash",
      "address_line__2": "Ste 100",
      "city": "Chicago",
      "state": "IL",
      "zip5": 60605,
      "zip4": null,
      "county": "COOK",
      "longitude": -87.625793,
      "latitude": 41.867756,
      "date_created": "2020-12-15 02:22:00-05"
    },
    {
      "x": -87.712517,
      "y": 41.941982,
      "objectid": 21397,
      "store_name": "CHICAGO FOOD CORP",
      "address": "3333 N Kimball Ave",
      "address_line__2": null,
      "city": "Chicago",
      "state": "IL",
      "zip5": 60618,
      "zip4": "5503",
      "county": "COOK",
      "longitude": -87.712517,
      "latitude": 41.941982,
      "date_created": "2020-12-15 02:22:00-05"
    },
    {
      "x": -87.675484,
      "y": 41.831631,
      "objectid": 21062,
      "store_name": "CERMAK PRODUCE #5",
      "address": "3435 S Archer Ave",
      "address_line__2": null,
      "city": "Chicago",
      "state": "IL",
      "zip5": 60608,
      "zip4": "6836",
      "county": "COOK",
      "longitude": -87.675484,
      "latitude": 41.831631,
      "date_created": "2020-12-15 02:22:00-05"
    },
    {
      "x": -87.706627,
      "y": 41.844578,
      "objectid": 21297,
      "store_name": "Dollar 26",
      "address": "3240 W 26th St",
      "address_line__2": null,
      "city": "Chicago",
      "state": "IL",
      "zip5": 60623,
      "zip4": "4033",
      "county": "COOK",
      "longitude": -87.706627,
      "latitude": 41.844578,
      "date_created": "2020-12-15 02:22:00-05"
    },
    {
      "x": -87.714973,
      "y": 41.786095,
      "objectid": 21510,
      "store_name": "Lawndale 59th Inc",
      "address": "3642 W 59th St",
      "address_line__2": null,
      "city": "Chicago",
      "state": "IL",
      "zip5": 60629,
      "zip4": "3906",
      "county": "COOK",
      "longitude": -87.714973,
      "latitude": 41.786095,
      "date_created": "2020-12-15 02:22:00-05"
    },
    {
      "x": -87.761673,
      "y": 41.878109,
      "objectid": 21534,
      "store_name": "M& S  2 Food Mart, Inc.",
      "address": "209 S Lotus Ave",
      "address_line__2": null,
      "city": "Chicago",
      "state": "IL",
      "zip5": 60644,
      "zip4": "4250",
      "county": "COOK",
      "longitude": -87.761673,
      "latitude": 41.878109,
      "date_created": "2020-12-15 02:22:00-05"
    },
    {
      "x": -87.639252,
      "y": 41.867195,
      "objectid": 21741,
      "store_name": "WALGREENS  4461",
      "address": "501 W Roosevelt Rd",
      "address_line__2": null,
      "city": "Chicago",
      "state": "IL",
      "zip5": 60607,
      "zip4": "4908",
      "county": "COOK",
      "longitude": -87.639252,
      "latitude": 41.867195,
      "date_created": "2020-12-15 02:22:00-05"
    },
    {
      "x": -87.766312,
      "y": 41.931793,
      "objectid": 21759,
      "store_name": "ALDI  90",
      "address": "2828 N Central Ave",
      "address_line__2": null,
      "city": "Chicago",
      "state": "IL",
      "zip5": 60634,
      "zip4": "5306",
      "county": "COOK",
      "longitude": -87.766312,
      "latitude": 41.931793,
      "date_created": "2020-12-15 02:22:00-05"
    },
    {
      "x": -87.752129,
      "y": 41.924229,
      "objectid": 21944,
      "store_name": "Fresh Market Place 3",
      "address": "5020 W Fullerton Ave",
      "address_line__2": null,
      "city": "Chicago",
      "state": "IL",
      "zip5": 60639,
      "zip4": "2414",
      "county": "COOK",
      "longitude": -87.752129,
      "latitude": 41.924229,
      "date_created": "2020-12-15 02:22:00-05"
    },
    {
      "x": -87.664787,
      "y": 41.954285,
      "objectid": 21789,
      "store_name": "7-eleven 35504A",
      "address": "1415 W Irving Park Rd",
      "address_line__2": null,
      "city": "Chicago",
      "state": "IL",
      "zip5": 60613,
      "zip4": "1920",
      "county": "COOK",
      "longitude": -87.664787,
      "latitude": 41.954285,
      "date_created": "2020-12-15 02:22:00-05"
    },
    {
      "x": -87.66452,
      "y": 41.793602,
      "objectid": 21796,
      "store_name": "Amstar",
      "address": "5501 S Ashland Ave",
      "address_line__2": null,
      "city": "Chicago",
      "state": "IL",
      "zip5": 60636,
      "zip4": "1311",
      "county": "COOK",
      "longitude": -87.66452,
      "latitude": 41.793602,
      "date_created": "2020-12-15 02:22:00-05"
    },
    {
      "x": -87.625885,
      "y": 41.866753,
      "objectid": 22275,
      "store_name": "Jewel Osco 3345",
      "address": "1224 S Wabash Ave",
      "address_line__2": null,
      "city": "Chicago",
      "state": "IL",
      "zip5": 60605,
      "zip4": "2401",
      "county": "COOK",
      "longitude": -87.625885,
      "latitude": 41.866753,
      "date_created": "2020-12-15 02:22:00-05"
    },
    {
      "x": -87.738953,
      "y": 41.88055,
      "objectid": 23095,
      "store_name": "Dearborn Wholesale Grocers",
      "address": "4525 W Madison St",
      "address_line__2": null,
      "city": "Chicago",
      "state": "IL",
      "zip5": 60624,
      "zip4": "2230",
      "county": "COOK",
      "longitude": -87.738953,
      "latitude": 41.88055,
      "date_created": "2020-12-15 02:22:00-05"
    },
    {
      "x": -87.665077,
      "y": 41.811699,
      "objectid": 22671,
      "store_name": "EL NARANJO",
      "address": "4516 S Ashland Ave",
      "address_line__2": null,
      "city": "Chicago",
      "state": "IL",
      "zip5": 60609,
      "zip4": "3249",
      "county": "COOK",
      "longitude": -87.665077,
      "latitude": 41.811699,
      "date_created": "2020-12-15 02:22:00-05"
    },
    {
      "x": -87.74588,
      "y": 41.938786,
      "objectid": 22793,
      "store_name": "WALGREENS  4986",
      "address": "4745 W Belmont Ave",
      "address_line__2": null,
      "city": "Chicago",
      "state": "IL",
      "zip5": 60641,
      "zip4": "4410",
      "county": "COOK",
      "longitude": -87.74588,
      "latitude": 41.938786,
      "date_created": "2020-12-15 02:22:00-05"
    },
    {
      "x": -87.713104,
      "y": 41.953842,
      "objectid": 23151,
      "store_name": "7-Eleven 29150E",
      "address": "3401 W Irving Park Rd",
      "address_line__2": null,
      "city": "Chicago",
      "state": "IL",
      "zip5": 60618,
      "zip4": "3207",
      "county": "COOK",
      "longitude": -87.713104,
      "latitude": 41.953842,
      "date_created": "2020-12-15 02:22:00-05"
    },
    {
      "x": -87.717583,
      "y": 41.910049,
      "objectid": 23304,
      "store_name": "EDDIE & SONS FOOD & LIQUOR",
      "address": "3624 W North Ave",
      "address_line__2": null,
      "city": "Chicago",
      "state": "IL",
      "zip5": 60647,
      "zip4": "4725",
      "county": "COOK",
      "longitude": -87.717583,
      "latitude": 41.910049,
      "date_created": "2020-12-15 02:22:00-05"
    },
    {
      "x": -87.651031,
      "y": 41.95451,
      "objectid": 23319,
      "store_name": "Irving Park Bp GEI-152",
      "address": "841 W Irving Park Rd",
      "address_line__2": null,
      "city": "Chicago",
      "state": "IL",
      "zip5": 60613,
      "zip4": "3012",
      "county": "COOK",
      "longitude": -87.651031,
      "latitude": 41.95451,
      "date_created": "2020-12-15 02:22:00-05"
    },
    {
      "x": -87.625542,
      "y": 41.885796,
      "objectid": 23215,
      "store_name": "Faith In Place",
      "address": "70 E Lake St",
      "address_line__2": "Ste 920",
      "city": "Chicago",
      "state": "IL",
      "zip5": 60601,
      "zip4": "5985",
      "county": "COOK",
      "longitude": -87.625542,
      "latitude": 41.885796,
      "date_created": "2020-12-15 02:22:00-05"
    },
    {
      "x": -87.745659,
      "y": 41.876549,
      "objectid": 23949,
      "store_name": "Easy Fuel Inc",
      "address": "304 S Cicero Ave",
      "address_line__2": null,
      "city": "Chicago",
      "state": "IL",
      "zip5": 60644,
      "zip4": "4902",
      "county": "COOK",
      "longitude": -87.745659,
      "latitude": 41.876549,
      "date_created": "2020-12-15 02:22:00-05"
    },
    {
      "x": -87.735512,
      "y": 41.880375,
      "objectid": 23407,
      "store_name": "Kostner Food Basket",
      "address": "24 S Kostner Ave",
      "address_line__2": null,
      "city": "Chicago",
      "state": "IL",
      "zip5": 60624,
      "zip4": "2521",
      "county": "COOK",
      "longitude": -87.735512,
      "latitude": 41.880375,
      "date_created": "2020-12-15 02:22:00-05"
    },
    {
      "x": -87.585541,
      "y": 41.802567,
      "objectid": 23697,
      "store_name": "Regents Market 1",
      "address": "1644 East Hyde Park Blvd",
      "address_line__2": null,
      "city": "Chicago",
      "state": "IL",
      "zip5": 60615,
      "zip4": null,
      "county": "COOK",
      "longitude": -87.585541,
      "latitude": 41.802567,
      "date_created": "2020-12-15 02:22:00-05"
    },
    {
      "x": -87.605804,
      "y": 41.77655,
      "objectid": 23610,
      "store_name": "7 Seas Food & Meat Mart",
      "address": "6501 S Cottage Grove Ave",
      "address_line__2": null,
      "city": "Chicago",
      "state": "IL",
      "zip5": 60637,
      "zip4": "4209",
      "county": "COOK",
      "longitude": -87.605804,
      "latitude": 41.77655,
      "date_created": "2020-12-15 02:22:00-05"
    },
    {
      "x": -87.683357,
      "y": 41.770306,
      "objectid": 24133,
      "store_name": "King Food & Liquor",
      "address": "6759 S Western Ave",
      "address_line__2": null,
      "city": "Chicago",
      "state": "IL",
      "zip5": 60636,
      "zip4": "2414",
      "county": "COOK",
      "longitude": -87.683357,
      "latitude": 41.770306,
      "date_created": "2020-12-15 02:22:00-05"
    },
    {
      "x": -87.733734,
      "y": 41.960873,
      "objectid": 24109,
      "store_name": "Cuenca's Bakery & Groceries",
      "address": "4229 W Montrose Ave",
      "address_line__2": null,
      "city": "Chicago",
      "state": "IL",
      "zip5": 60641,
      "zip4": "2003",
      "county": "COOK",
      "longitude": -87.733734,
      "latitude": 41.960873,
      "date_created": "2020-12-15 02:22:00-05"
    },
    {
      "x": -87.721359,
      "y": 41.899174,
      "objectid": 24795,
      "store_name": "Exclusion Food Market Inc.",
      "address": "1000 N Hamlin Ave",
      "address_line__2": null,
      "city": "Chicago",
      "state": "IL",
      "zip5": 60651,
      "zip4": "3830",
      "county": "COOK",
      "longitude": -87.721359,
      "latitude": 41.899174,
      "date_created": "2020-12-15 02:22:00-05"
    },
    {
      "x": -87.723579,
      "y": 41.778637,
      "objectid": 24407,
      "store_name": "La Familia Dollar Store Inc. 1",
      "address": "4019 W 63rd St",
      "address_line__2": null,
      "city": "Chicago",
      "state": "IL",
      "zip5": 60629,
      "zip4": "4605",
      "county": "COOK",
      "longitude": -87.723579,
      "latitude": 41.778637,
      "date_created": "2020-12-15 02:22:00-05"
    },
    {
      "x": -87.721054,
      "y": 41.866203,
      "objectid": 24645,
      "store_name": "Challenge Discount Inc.",
      "address": "3821 W Roosevelt Rd",
      "address_line__2": null,
      "city": "Chicago",
      "state": "IL",
      "zip5": 60624,
      "zip4": "4231",
      "county": "COOK",
      "longitude": -87.721054,
      "latitude": 41.866203,
      "date_created": "2020-12-15 02:22:00-05"
    },
    {
      "x": -87.72319,
      "y": 41.793995,
      "objectid": 24683,
      "store_name": "Le Paris Bakery No 2, Inc",
      "address": "5434 S Pulaski Rd",
      "address_line__2": null,
      "city": "Chicago",
      "state": "IL",
      "zip5": 60632,
      "zip4": "4238",
      "county": "COOK",
      "longitude": -87.72319,
      "latitude": 41.793995,
      "date_created": "2020-12-15 02:22:00-05"
    },
    {
      "x": -87.613838,
      "y": 41.765923,
      "objectid": 24902,
      "store_name": "Mana ",
      "address": "434 E 71st St",
      "address_line__2": null,
      "city": "Chicago",
      "state": "IL",
      "zip5": 60619,
      "zip4": "1129",
      "county": "COOK",
      "longitude": -87.613838,
      "latitude": 41.765923,
      "date_created": "2020-12-15 02:22:00-05"
    },
    {
      "x": -87.560677,
      "y": 41.63039,
      "objectid": 25209,
      "store_name": "All Foods Ink",
      "address": "2474 E State St",
      "address_line__2": null,
      "city": "Chicago",
      "state": "IL",
      "zip5": 60633,
      "zip4": "2230",
      "county": "COOK",
      "longitude": -87.560677,
      "latitude": 41.63039,
      "date_created": "2020-12-15 02:22:00-05"
    },
    {
      "x": -87.73111,
      "y": 41.778599,
      "objectid": 25123,
      "store_name": "La Paloma Supermercado",
      "address": "4324 W 63rd St",
      "address_line__2": null,
      "city": "Chicago",
      "state": "IL",
      "zip5": 60629,
      "zip4": null,
      "county": "COOK",
      "longitude": -87.73111,
      "latitude": 41.778599,
      "date_created": "2020-12-15 02:22:00-05"
    },
    {
      "x": -87.66758,
      "y": 41.808544,
      "objectid": 25143,
      "store_name": "SUPERMERCADO EL GUERO NO  1",
      "address": "1701 W 47th St",
      "address_line__2": null,
      "city": "Chicago",
      "state": "IL",
      "zip5": 60609,
      "zip4": "3823",
      "county": "COOK",
      "longitude": -87.66758,
      "latitude": 41.808544,
      "date_created": "2020-12-15 02:22:00-05"
    },
    {
      "x": -87.708069,
      "y": 41.946033,
      "objectid": 25147,
      "store_name": "Jewel 3470",
      "address": "3570 N Elston Ave",
      "address_line__2": null,
      "city": "Chicago",
      "state": "IL",
      "zip5": 60618,
      "zip4": "4318",
      "county": "COOK",
      "longitude": -87.708069,
      "latitude": 41.946033,
      "date_created": "2020-12-15 02:22:00-05"
    },
    {
      "x": -87.745773,
      "y": 41.895332,
      "objectid": 25468,
      "store_name": "Marathon Fuel & Mini Mart",
      "address": "801 N Cicero Ave",
      "address_line__2": null,
      "city": "Chicago",
      "state": "IL",
      "zip5": 60651,
      "zip4": "3227",
      "county": "COOK",
      "longitude": -87.745773,
      "latitude": 41.895332,
      "date_created": "2020-12-15 02:22:00-05"
    },
    {
      "x": -87.67086,
      "y": 41.830467,
      "objectid": 25426,
      "store_name": "Wala Wala Brothers, Inc.",
      "address": "1810 W 35th St",
      "address_line__2": null,
      "city": "Chicago",
      "state": "IL",
      "zip5": 60609,
      "zip4": "1201",
      "county": "COOK",
      "longitude": -87.67086,
      "latitude": 41.830467,
      "date_created": "2020-12-15 02:22:00-05"
    },
    {
      "x": -87.618462,
      "y": 41.885475,
      "objectid": 25431,
      "store_name": "Mariano's Fresh Market 8503",
      "address": "333 E Benton Pl",
      "address_line__2": "Ste 206",
      "city": "Chicago",
      "state": "IL",
      "zip5": 60601,
      "zip4": "7411",
      "county": "COOK",
      "longitude": -87.618462,
      "latitude": 41.885475,
      "date_created": "2020-12-15 02:22:00-05"
    },
    {
      "x": -87.559906,
      "y": 41.702625,
      "objectid": 25517,
      "store_name": "Torrance Food Inc",
      "address": "10600-02 Torrence Ave",
      "address_line__2": null,
      "city": "Chicago",
      "state": "IL",
      "zip5": 60617,
      "zip4": null,
      "county": "COOK",
      "longitude": -87.559906,
      "latitude": 41.702625,
      "date_created": "2020-12-15 02:22:00-05"
    },
    {
      "x": -87.6651,
      "y": 41.811207,
      "objectid": 25841,
      "store_name": "INTERNATIONAL SUPERMARKET INC",
      "address": "4556 S Ashland Ave",
      "address_line__2": null,
      "city": "Chicago",
      "state": "IL",
      "zip5": 60609,
      "zip4": "3249",
      "county": "COOK",
      "longitude": -87.6651,
      "latitude": 41.811207,
      "date_created": "2020-12-15 02:22:00-05"
    },
    {
      "x": -87.604469,
      "y": 41.716324,
      "objectid": 25630,
      "store_name": "Eddie's Liquor's & Deli",
      "address": "9809 S Cottage Grove Ave",
      "address_line__2": null,
      "city": "Chicago",
      "state": "IL",
      "zip5": 60628,
      "zip4": "1528",
      "county": "COOK",
      "longitude": -87.604469,
      "latitude": 41.716324,
      "date_created": "2020-12-15 02:22:00-05"
    },
    {
      "x": -87.707535,
      "y": 41.910149,
      "objectid": 25681,
      "store_name": "ROESER'S BAKERY",
      "address": "3216 W North Ave",
      "address_line__2": null,
      "city": "Chicago",
      "state": "IL",
      "zip5": 60647,
      "zip4": "4940",
      "county": "COOK",
      "longitude": -87.707535,
      "latitude": 41.910149,
      "date_created": "2020-12-15 02:22:00-05"
    },
    {
      "x": -87.769089,
      "y": 41.938515,
      "objectid": 25720,
      "store_name": "Dollar General 12864",
      "address": "5701 W Belmont Ave",
      "address_line__2": null,
      "city": "Chicago",
      "state": "IL",
      "zip5": 60634,
      "zip4": "5209",
      "county": "COOK",
      "longitude": -87.769089,
      "latitude": 41.938515,
      "date_created": "2020-12-15 02:22:00-05"
    },
    {
      "x": -87.688744,
      "y": 41.965736,
      "objectid": 26248,
      "store_name": "7-Eleven 32261C",
      "address": "4631 N Western Ave",
      "address_line__2": null,
      "city": "Chicago",
      "state": "IL",
      "zip5": 60625,
      "zip4": "2042",
      "county": "COOK",
      "longitude": -87.688744,
      "latitude": 41.965736,
      "date_created": "2020-12-15 02:22:00-05"
    },
    {
      "x": -87.641243,
      "y": 41.88324,
      "objectid": 26233,
      "store_name": "7-Eleven 33723B",
      "address": "550 W Washington Blvd",
      "address_line__2": "Fl 1",
      "city": "Chicago",
      "state": "IL",
      "zip5": 60661,
      "zip4": "2711",
      "county": "COOK",
      "longitude": -87.641243,
      "latitude": 41.88324,
      "date_created": "2020-12-15 02:22:00-05"
    },
    {
      "x": -87.771118,
      "y": 41.777843,
      "objectid": 26236,
      "store_name": "7-Eleven 27463D",
      "address": "5953 W 63rd St",
      "address_line__2": null,
      "city": "Chicago",
      "state": "IL",
      "zip5": 60638,
      "zip4": "5409",
      "county": "COOK",
      "longitude": -87.771118,
      "latitude": 41.777843,
      "date_created": "2020-12-15 02:22:00-05"
    },
    {
      "x": -87.689804,
      "y": 41.998299,
      "objectid": 27881,
      "store_name": "Chicago Live Poultry",
      "address": "6421 N Western Ave",
      "address_line__2": null,
      "city": "Chicago",
      "state": "IL",
      "zip5": 60645,
      "zip4": "5421",
      "county": "COOK",
      "longitude": -87.689804,
      "latitude": 41.998299,
      "date_created": "2020-12-15 02:22:00-05"
    },
    {
      "x": -87.643127,
      "y": 41.83807,
      "objectid": 26370,
      "store_name": "Vp",
      "address": "659 W 31st St",
      "address_line__2": null,
      "city": "Chicago",
      "state": "IL",
      "zip5": 60616,
      "zip4": "3036",
      "county": "COOK",
      "longitude": -87.643127,
      "latitude": 41.83807,
      "date_created": "2020-12-15 02:22:00-05"
    },
    {
      "x": -87.732628,
      "y": 41.844097,
      "objectid": 26379,
      "store_name": "LA MERCED INC",
      "address": "4335 W 26th St",
      "address_line__2": null,
      "city": "Chicago",
      "state": "IL",
      "zip5": 60623,
      "zip4": "4364",
      "county": "COOK",
      "longitude": -87.732628,
      "latitude": 41.844097,
      "date_created": "2020-12-15 02:22:00-05"
    },
    {
      "x": -87.698593,
      "y": 41.99786,
      "objectid": 26824,
      "store_name": "Mercy Asian Food, Inc.",
      "address": "2732 W Devon Ave",
      "address_line__2": null,
      "city": "Chicago",
      "state": "IL",
      "zip5": 60659,
      "zip4": "1711",
      "county": "COOK",
      "longitude": -87.698593,
      "latitude": 41.99786,
      "date_created": "2020-12-15 02:22:00-05"
    },
    {
      "x": -87.694687,
      "y": 41.996998,
      "objectid": 26829,
      "store_name": "Rangoon Burma Llc",
      "address": "6347 N Rockwell St",
      "address_line__2": null,
      "city": "Chicago",
      "state": "IL",
      "zip5": 60659,
      "zip4": "1801",
      "county": "COOK",
      "longitude": -87.694687,
      "latitude": 41.996998,
      "date_created": "2020-12-15 02:22:00-05"
    },
    {
      "x": -87.627884,
      "y": 41.88483,
      "objectid": 27599,
      "store_name": "Walgreens 15196",
      "address": "151 N State St",
      "address_line__2": "FL 1",
      "city": "Chicago",
      "state": "IL",
      "zip5": 60601,
      "zip4": "3601",
      "county": "COOK",
      "longitude": -87.627884,
      "latitude": 41.88483,
      "date_created": "2020-12-15 02:22:00-05"
    },
    {
      "x": -87.742798,
      "y": 41.800343,
      "objectid": 27944,
      "store_name": "Dollar Tree 5169",
      "address": "5101 S Cicero Ave",
      "address_line__2": "Unit 104",
      "city": "Chicago",
      "state": "IL",
      "zip5": 60632,
      "zip4": "4914",
      "county": "COOK",
      "longitude": -87.742798,
      "latitude": 41.800343,
      "date_created": "2020-12-15 02:22:00-05"
    },
    {
      "x": -87.667114,
      "y": 41.891064,
      "objectid": 27969,
      "store_name": "Mohil Inc",
      "address": "505 N Ashland Ave",
      "address_line__2": null,
      "city": "Chicago",
      "state": "IL",
      "zip5": 60622,
      "zip4": "6306",
      "county": "COOK",
      "longitude": -87.667114,
      "latitude": 41.891064,
      "date_created": "2020-12-15 02:22:00-05"
    },
    {
      "x": -87.63401,
      "y": 41.742516,
      "objectid": 26576,
      "store_name": "Walmart Supercenter 5781",
      "address": "8331 S Stewart Ave",
      "address_line__2": null,
      "city": "Chicago",
      "state": "IL",
      "zip5": 60620,
      "zip4": "1728",
      "county": "COOK",
      "longitude": -87.63401,
      "latitude": 41.742516,
      "date_created": "2020-12-15 02:22:00-05"
    },
    {
      "x": -87.684189,
      "y": 41.798458,
      "objectid": 27346,
      "store_name": "St.michael 52nd Inc. 0",
      "address": "5230 S Western Ave",
      "address_line__2": null,
      "city": "Chicago",
      "state": "IL",
      "zip5": 60609,
      "zip4": "5433",
      "county": "COOK",
      "longitude": -87.684189,
      "latitude": 41.798458,
      "date_created": "2020-12-15 02:22:00-05"
    },
    {
      "x": -87.665634,
      "y": 41.768463,
      "objectid": 27363,
      "store_name": "Mali Mart, Inc.",
      "address": "1659 W 69th St",
      "address_line__2": null,
      "city": "Chicago",
      "state": "IL",
      "zip5": 60636,
      "zip4": "3343",
      "county": "COOK",
      "longitude": -87.665634,
      "latitude": 41.768463,
      "date_created": "2020-12-15 02:22:00-05"
    },
    {
      "x": -87.707932,
      "y": 41.952251,
      "objectid": 27366,
      "store_name": "Our Food Store Inc",
      "address": "3901 N Kedzie Ave",
      "address_line__2": null,
      "city": "Chicago",
      "state": "IL",
      "zip5": 60618,
      "zip4": "3415",
      "county": "COOK",
      "longitude": -87.707932,
      "latitude": 41.952251,
      "date_created": "2020-12-15 02:22:00-05"
    },
    {
      "x": -87.703995,
      "y": 41.807789,
      "objectid": 28337,
      "store_name": "PETE'S FRESH MARKET 2",
      "address": "4700 S Kedzie Ave",
      "address_line__2": null,
      "city": "Chicago",
      "state": "IL",
      "zip5": 60632,
      "zip4": "3002",
      "county": "COOK",
      "longitude": -87.703995,
      "latitude": 41.807789,
      "date_created": "2020-12-15 02:22:00-05"
    },
    {
      "x": -87.764847,
      "y": 41.909332,
      "objectid": 28371,
      "store_name": "SAVE-A-LOT  856",
      "address": "5555 W North Ave",
      "address_line__2": null,
      "city": "Chicago",
      "state": "IL",
      "zip5": 60639,
      "zip4": "4251",
      "county": "COOK",
      "longitude": -87.764847,
      "latitude": 41.909332,
      "date_created": "2020-12-15 02:22:00-05"
    },
    {
      "x": -87.7341,
      "y": 41.778515,
      "objectid": 28372,
      "store_name": "SAVE-A-LOT  860",
      "address": "4439 W 63rd St",
      "address_line__2": null,
      "city": "Chicago",
      "state": "IL",
      "zip5": 60629,
      "zip4": "5548",
      "county": "COOK",
      "longitude": -87.7341,
      "latitude": 41.778515,
      "date_created": "2020-12-15 02:22:00-05"
    },
    {
      "x": -87.614082,
      "y": 41.758347,
      "objectid": 28385,
      "store_name": "Vernon Street Mart",
      "address": "427 E 75th St",
      "address_line__2": null,
      "city": "Chicago",
      "state": "IL",
      "zip5": 60619,
      "zip4": "2201",
      "county": "COOK",
      "longitude": -87.614082,
      "latitude": 41.758347,
      "date_created": "2020-12-15 02:22:00-05"
    },
    {
      "x": -87.729622,
      "y": 41.866138,
      "objectid": 29219,
      "store_name": "Keeler Food & Cellular",
      "address": "4150 W Roosevelt Rd",
      "address_line__2": null,
      "city": "Chicago",
      "state": "IL",
      "zip5": 60624,
      "zip4": "3940",
      "county": "COOK",
      "longitude": -87.729622,
      "latitude": 41.866138,
      "date_created": "2020-12-15 02:22:00-05"
    },
    {
      "x": -87.575249,
      "y": 41.721092,
      "objectid": 28553,
      "store_name": "Fresh Market On Jefferey Inc",
      "address": "9557 S Jeffery Ave",
      "address_line__2": null,
      "city": "Chicago",
      "state": "IL",
      "zip5": 60617,
      "zip4": "4729",
      "county": "COOK",
      "longitude": -87.575249,
      "latitude": 41.721092,
      "date_created": "2020-12-15 02:22:00-05"
    },
    {
      "x": -87.745903,
      "y": 41.891506,
      "objectid": 28990,
      "store_name": "Mayo Food And Liquor ",
      "address": "600 N Cicero Ave",
      "address_line__2": null,
      "city": "Chicago",
      "state": "IL",
      "zip5": 60644,
      "zip4": "1705",
      "county": "COOK",
      "longitude": -87.745903,
      "latitude": 41.891506,
      "date_created": "2020-12-15 02:22:00-05"
    },
    {
      "x": -87.67202,
      "y": 41.691704,
      "objectid": 28472,
      "store_name": "LONGWOOD FOODS",
      "address": "11106 S Longwood Dr",
      "address_line__2": null,
      "city": "Chicago",
      "state": "IL",
      "zip5": 60643,
      "zip4": "4006",
      "county": "COOK",
      "longitude": -87.67202,
      "latitude": 41.691704,
      "date_created": "2020-12-15 02:22:00-05"
    },
    {
      "x": -87.692574,
      "y": 41.978828,
      "objectid": 29269,
      "store_name": "DOLLAR TREE 4693",
      "address": "5347 N Lincoln Ave",
      "address_line__2": null,
      "city": "Chicago",
      "state": "IL",
      "zip5": 60625,
      "zip4": "2307",
      "county": "COOK",
      "longitude": -87.692574,
      "latitude": 41.978828,
      "date_created": "2020-12-15 02:22:00-05"
    },
    {
      "x": -87.723717,
      "y": 41.81031,
      "objectid": 29224,
      "store_name": "South Pulaski Mobil",
      "address": "4540 S. Pulaski",
      "address_line__2": null,
      "city": "Chicago",
      "state": "IL",
      "zip5": 60632,
      "zip4": null,
      "county": "COOK",
      "longitude": -87.723717,
      "latitude": 41.81031,
      "date_created": "2020-12-15 02:22:00-05"
    },
    {
      "x": -87.702034,
      "y": 41.910187,
      "objectid": 29456,
      "store_name": "West Town Wine & Spirits",
      "address": "2501-03 North Ave",
      "address_line__2": null,
      "city": "Chicago",
      "state": "IL",
      "zip5": 60647,
      "zip4": null,
      "county": "COOK",
      "longitude": -87.702034,
      "latitude": 41.910187,
      "date_created": "2020-12-15 02:22:00-05"
    },
    {
      "x": -87.663811,
      "y": 41.808571,
      "objectid": 29628,
      "store_name": "47th Grocery Inc",
      "address": "1535 W 47th St",
      "address_line__2": null,
      "city": "Chicago",
      "state": "IL",
      "zip5": 60609,
      "zip4": "3238",
      "county": "COOK",
      "longitude": -87.663811,
      "latitude": 41.808571,
      "date_created": "2020-12-15 02:22:00-05"
    },
    {
      "x": -87.661491,
      "y": 41.692169,
      "objectid": 29913,
      "store_name": "Faatima LLC",
      "address": "1530 W 111th St",
      "address_line__2": null,
      "city": "Chicago",
      "state": "IL",
      "zip5": 60643,
      "zip4": "3522",
      "county": "COOK",
      "longitude": -87.661491,
      "latitude": 41.692169,
      "date_created": "2020-12-15 02:22:00-05"
    },
    {
      "x": -87.776649,
      "y": 41.960323,
      "objectid": 29820,
      "store_name": "St Jude Oil Group Inc",
      "address": "5959 W Montrose Ave",
      "address_line__2": null,
      "city": "Chicago",
      "state": "IL",
      "zip5": 60634,
      "zip4": "1689",
      "county": "COOK",
      "longitude": -87.776649,
      "latitude": 41.960323,
      "date_created": "2020-12-15 02:22:00-05"
    },
    {
      "x": -87.654655,
      "y": 41.961384,
      "objectid": 29828,
      "store_name": "Jewel 3455",
      "address": "4355 N Sheridan Rd",
      "address_line__2": null,
      "city": "Chicago",
      "state": "IL",
      "zip5": 60613,
      "zip4": "1497",
      "county": "COOK",
      "longitude": -87.654655,
      "latitude": 41.961384,
      "date_created": "2020-12-15 02:22:00-05"
    },